~VERSION	INFORMATION																				
VERS	.	2	:CWLS	Log	ASCII	Standard	-	VERSION	2												
WRAP	.	NO	:One	Line	per	Depth	step														
PROD	.	Schlumberger	Technology	Corp.	:LAS	Producer															
PROG	.	Horizon	LASWriter	7.3.92069.3100	:LAS	Program	name	and	version												
SOURCE.	2-Main[4]/Up	:Run&Pass	Information																		
CREA	.	11/27/2017	:LAS	Creation	date	{MM/DD/YYYY}															
#--------------------------------------------------																					
~WELL	INFORMATION																				
#MNEM	.UNIT	DATA	:DESCRIPTION																		
#----	------	--------------	-----------------------------																		
STRT	.m	289.8648	:START	DEPTH																	
STOP	.m	1205.6364	:STOP	DEPTH																	
STEP	.m	0.1524	:STEP																		
NULL	.	-999.25	:NULL	VALUE																	
COMP	.	:COMPANY																			
WELL	.	H-8	:WELL	NAME																	
FLD	.	:FIELD	NAME																		
RIGN	.	:Rig	Name																		
RIGTYP	.	Land	:Rig	Type																	
SON	.	CYTN-00096	:Service	Order	Number																
SRVC	.	Schlumberger	:SERVICE	COMPANY																	
DATE	.	:LOG	DATE(Composite	Date	for	Composite	LAP)	(MM/DD/YYYY)													
CLAB	.	Prefecture:	:County	Label																	
CNTY	.	:COUNTY																			
SLAB	.	Rig	Name	:State/Province	Label																
STAT	.	:STATE	or	PROVINCE																	
PROV	.	:STATE	or	PROVINCE																	
CTRY	.	:COUNTRY																			
CONT_REGION	.	Asia	:Continent	Region																	
SECT	.	:Section																			
TOWN	.	:Township																			
RANG	.	:Range																			
API	.	:API	NUMBER																		
UWI	.	:UNIQUE	WELL	ID																	
LUL	.	PATW	:Logging	Unit	Location																
LUN	.	OSLC#2147	:Logging	Unit	Number																
LOC	.	:FIELD	LOCATION																		
FL1	.	:Field	Location	Line	1																
FL2	.	:Field	Location	Line	2																
LATI	.deg	:LATITUDE																			
LONG	.deg	:LONGITUDE																			
PDAT	.	GL	:Local	Permanent	Datum																
LMF	.	GL	:Logging	Measured	From																
APD	.m	0	:Elevation	of	Depth	Reference	(LMF)	Above	Permanent	Datum											
EPD	.m	14.09	:Elevation	of	Permanent	Datum	(PDAT)	above	Mean	Sea	Level										
EKB	.m	-999.25	:Elevation	of	Kelly	Bushing	Above	Permanent	Datum												
EDF	.m	20.19	:Elevation	of	Drill	Floor	Above	Permanent	Datum												
EGL	.m	0	:Elevation	of	Ground	Level	Above	Permanent	Datum												
ECF	.m	-999.25	:Elevation	of	Casing	Flange	above	Permanent	Datum												
#--------------------------------------------------																					
~CURVE	INFORMATION																				
#MNEM	.UNIT	API	CODE	:DESCRIPTION																	
#----	------	--------------	-----------------------------																		
DEPT	.m	:	Depth	Index																	
RHOZ	.g/cm3	:	(HDRS-H)	(2in)	Standard	Resolution	Formation	Density													
CALI	.in	:	(HDRS-H)	(1in)	Caliper																
TENS	.lbf	:	(WLWorkflow)	(6in)	Cable	Tension															
BS	.in	:(RT)	(Borehole)	(6in)	Bit	Size															
PEFZ	.	:	(HDRS-H)	(2in)	Standard	Resolution	Formation	Photoelectric	Factor												
NPHI	.m3/m3	:	(HGNS-H)	(6in)	Thermal	Neutron	Porosity	(original	Ratio	Method)	in	Selected	Lithology								
TNPH	.m3/m3	:	(HGNS-H)	(6in)	Thermal	Neutron	Porosity	(Ratio	Method)	in	Selected	Lithology									
HDRA	.g/cm3	:	(HDRS-H)	(2in)	Density	Standoff	Correction														
ICV	.m3	:(RT)	(Borehole)	(6in)	Integrated	Cement	Volume														
IHV	.m3	:(RT)	(Borehole)	(6in)	Integrated	Hole	Volume														
SP	.mV	:	(SPA-A)	(6in)	Spontaneous	Potential															
SPHI	.m3/m3	:	(DSLT-H)	(6in)	Sonic	Porosity															
DT	.us/ft	:	(DSLT-H)	(6in)	Delta-T	(also	called	Slowness	or	Interval	Transit	Time)									
RLA1	.ohm.m	:	(HRLT-B)	(2in)	Apparent	Resistivity	from	Computed	Focusing	Mode	1										
RLA2	.ohm.m	:	(HRLT-B)	(2in)	Apparent	Resistivity	from	Computed	Focusing	Mode	2										
RLA3	.ohm.m	:	(HRLT-B)	(2in)	Apparent	Resistivity	from	Computed	Focusing	Mode	3										
RLA4	.ohm.m	:	(HRLT-B)	(2in)	Apparent	Resistivity	from	Computed	Focusing	Mode	4										
RLA5	.ohm.m	:	(HRLT-B)	(2in)	Apparent	Resistivity	from	Computed	Focusing	Mode	5										
ITT	.s	:	(DSLT-H)	(6in)	Integrated	Transit	Time														
GR	.gAPI	:	(HGNS-H)	(6in)	Gamma	Ray															
#-------------------------------------------------------------																					
#	DEPT	RHOZ	CALI	TENS	BS	PEFZ	NPHI	TNPH	HDRA	ICV	IHV	SP	SPHI	DT	RLA1	RLA2	RLA3	RLA4	RLA5	ITT	GR
#	(HDRS-H)	(HDRS-H)	(WLWorkflo)	(Borehole)	(HDRS-H)	(HGNS-H)	(HGNS-H)	(HDRS-H)	(Borehole)	(Borehole)	(SPA-A)	(DSLT-H)	(DSLT-H)	(HRLT-B)	(HRLT-B)	(HRLT-B)	(HRLT-B)	(HRLT-B)	(DSLT-H)	(HGNS-H)	
#	(RT)	(RT)	(RT)																		
#	(2in)	(1in)	(6in)	(6in)	(2in)	(6in)	(6in)	(2in)	(6in)	(6in)	(6in)	(6in)	(6in)	(2in)	(2in)	(2in)	(2in)	(2in)	(6in)	(6in)	
~ASCII																					
# ...
	703.6308	2.24158	8.99356	2226.74989	8.5	2.74979	0.3006	0.33323	-0.00931	5.91581	18.3833	2.04464	0.36243	133.29693	20.45492	23.86152	25.85045	26.85829	27.60092	0.20701	125.9221
	703.7832	2.25184	9.05078	2239.42867	8.5	2.83491	0.29114	0.3229	-0.00746	5.91402	18.37772	0.77344	0.35921	131.68482	20.21822	23.24635	24.89004	25.79638	26.4389	0.20695	129.7501
	703.9356	2.25506	9.08512	2240.6251	8.5	2.87686	0.26908	0.31607	-0.00393	5.91222	18.37214	-1.60156	0.35887	131.51702	19.14681	21.95124	23.42671	24.36699	24.93456	0.20688	129.0799
	704.088	2.26782	9.22247	2257.62583	8.5	2.8798	0.23349	0.29228	-0.00294	5.91043	18.36656	-4.45313	0.36047	132.31066	19.38436	22.00247	23.49713	24.42001	25.07533	0.20682	129.0801
	704.2404	2.27798	9.35982	2259.99981	8.5	2.89369	0.25797	0.26834	-0.00134	5.90863	18.36098	-5.75	0.36326	133.71991	19.63556	21.89474	23.48717	24.31141	24.91981	0.20675	129.4944
	704.3928	2.26662	9.4056	2253.99966	8.5	2.93024	0.26917	0.27412	-0.0041	5.90684	18.3554	-5.3125	0.36446	134.33581	19.21523	21.56789	23.00735	23.81224	24.50405	0.20668	127.9319
	704.5452	2.25664	9.4285	2254.12555	8.5	2.91087	0.296	0.27465	-0.00438	5.90504	18.34982	-2.84821	0.36455	134.38059	18.64002	21.08801	22.4176	23.17024	23.78012	0.20661	127.0389
	704.6976	2.25971	9.33693	2230.7144	8.5	2.86193	0.29152	0.29112	-0.00447	5.90325	18.34424	-1.70313	0.3618	132.97769	19.85698	22.80291	24.32028	25.10126	25.81409	0.20655	124.3274
	704.85	2.26914	9.03934	2228.37504	8.5	2.80416	0.31286	0.29403	-0.00414	5.90145	18.33866	-1.03906	0.3605	132.32679	21.24009	24.6872	26.4232	27.31438	28.13517	0.20648	126.5599
	705.0024	2.24689	9.03934	2225.99993	8.5	2.78888	0.31833	0.32428	-0.00558	5.89966	18.33308	1.13393	0.36133	132.74046	21.16518	24.89007	26.70721	27.68356	28.67561	0.20642	121.0742
	705.1548	2.20292	9.01644	2211.28573	8.5	2.76292	0.33176	0.33351	-0.00622	5.89786	18.32751	3.01563	0.364	134.09764	19.41765	22.64104	24.29544	25.17944	26.21551	0.20635	109.7197
	705.3072	2.17032	8.92488	2209.37508	8.5	2.67707	0.31476	0.3432	-0.0084	5.89607	18.32193	4.55469	0.36839	136.39215	19.30429	22.20343	23.83591	24.74205	25.77311	0.20628	101.2356
	705.4596	2.16073	8.92488	2226.42841	8.5	2.58417	0.319	0.32603	-0.00988	5.89427	18.31635	5.28571	0.37057	137.56352	20.05943	23.10785	24.91504	25.82683	27.01876	0.20621	100.6929
	705.612	2.16894	8.91343	2225.87516	8.5	2.49856	0.31214	0.33323	-0.01188	5.89248	18.31077	5.21875	0.36942	136.9414	19.85094	23.4636	25.35595	26.44563	27.64759	0.20614	102.8621
	705.7644	2.18225	8.92488	2226.87511	8.5	2.45964	0.30459	0.32383	-0.00835	5.89068	18.30519	4.97656	0.36754	135.94461	19.57324	23.67659	25.51743	26.76357	28.07308	0.20608	98.84308
	705.9168	2.1755	8.92488	2219.85725	8.5	2.45419	0.28583	0.30741	-0.00857	5.88888	18.29961	4.94643	0.36757	135.95967	20.29214	24.63249	26.5327	27.8563	29.19376	0.20601	93.00639
	706.0692	2.15496	8.91343	2241.37506	8.5	2.47276	0.29185	0.2921	-0.00713	5.88709	18.29403	4.99219	0.36841	136.40538	18.92778	22.86407	24.80127	25.99245	27.26767	0.20594	86.37197
	706.2216	2.11869	8.92488	2256.1241	8.5	2.46837	0.29955	0.30924	-0.00738	5.88529	18.28845	4.99107	0.36994	137.22337	17.75961	21.00393	22.95474	23.99749	25.16371	0.20587	83.02365
	706.374	2.09974	8.92488	2244.85713	8.5	2.44212	0.29725	0.30766	-0.00544	5.8835	18.28287	4.78906	0.3718	138.23219	17.47547	20.54696	22.45447	23.49008	24.55344	0.2058	81.04568
	706.5264	2.10341	8.98211	2236.62507	8.5	2.42492	0.27721	0.30384	-0.00617	5.8817	18.27729	3.88281	0.37174	138.1994	17.32121	20.49127	22.27825	23.29615	24.31364	0.20573	81.04569
	706.6788	2.13468	8.99356	2242.87521	8.5	2.45606	0.266	0.28863	-0.0067	5.87991	18.27172	2.60714	0.36756	135.95528	18.06676	21.69824	23.61773	24.678	25.6897	0.20567	86.85029
	706.8312	2.17659	9.03934	2234.57144	8.5	2.52284	0.27637	0.28224	-0.00458	5.87811	18.26614	0.3125	0.36471	134.46548	18.56438	22.38427	24.39058	25.53251	26.46192	0.2056	98.01373
	706.9836	2.19554	9.08512	2252.50018	8.5	2.60383	0.28744	0.29318	-0.00442	5.87632	18.26056	-1.3125	0.36401	134.10365	17.15214	20.28453	21.91813	22.87769	23.65462	0.20553	109.4001
	707.136	2.19289	9.10801	2269.2507	8.5	2.65564	0.29779	0.30728	-0.00523	5.87452	18.25498	-1.67857	0.36513	134.68441	15.2337	17.48128	18.8604	19.768	20.36098	0.20546	112.0795
	707.2884	2.18202	9.10801	2242.00003	8.5	2.66391	0.31835	0.31689	-0.00656	5.87273	18.2494	-1.89844	0.36781	136.08524	14.57832	16.30744	17.58749	18.41217	18.96285	0.2054	111.8247
	707.4408	2.184	9.1538	2246.87524	8.5	2.64161	0.32679	0.33544	-0.00599	5.87093	18.24382	-1.77679	0.37022	137.37159	14.59454	16.29334	17.55135	18.35998	18.9055	0.20533	104.4567
	707.5932	2.198	9.19958	2229.125	8.5	2.60993	0.33059	0.33605	-0.00425	5.86914	18.23824	-2.10156	0.36891	136.67314	14.08038	15.90007	17.07308	17.84411	18.42519	0.20526	104.0103
	707.7456	2.20417	9.26825	2224.57149	8.5	2.6265	0.319	0.33722	-0.00419	5.86734	18.23266	-2.97656	0.36661	135.45205	14.35776	16.45235	17.64664	18.41531	19.05557	0.20519	102.2241
	707.898	2.19946	9.30259	2246.12505	8.5	2.64696	0.33283	0.33129	-0.00606	5.86555	18.22708	-3.08594	0.36596	135.11217	14.83922	17.10015	18.35135	19.05192	19.71179	0.20512	106.0199
	708.0504	2.18866	9.38271	2250.62528	8.5	2.66344	0.33323	0.33571	-0.00848	5.86375	18.2215	-3.16071	0.36496	134.59264	14.5576	16.7578	18.00389	18.65033	19.33759	0.20506	99.99126
	708.2028	2.19471	9.4056	2234.42847	8.5	2.63062	0.32735	0.34927	-0.00787	5.86196	18.21593	-3.8125	0.3654	134.82374	14.02881	16.12383	17.30082	17.94726	18.61989	0.20499	98.20531
	708.3552	2.20495	9.47428	2231.37489	8.5	2.62843	0.30657	0.35653	-0.00628	5.86016	18.21035	-4.85156	0.36631	135.29849	13.78764	15.73966	16.80787	17.52875	18.22058	0.20492	100.2147
	708.5076	2.21105	9.56584	2229.57147	8.5	2.6585	0.34474	0.32973	-0.00574	5.85836	18.20477	-5.75	0.36642	135.355	13.27626	14.86491	15.90929	16.6	17.24488	0.20485	110.7085
	708.66	2.20529	9.65741	2227.37486	8.5	2.71879	0.34363	0.35188	-0.00668	5.85657	18.19919	-6.875	0.36779	136.07717	13.2109	14.6353	15.68464	16.38186	17.03697	0.20479	114.3121
	708.8124	2.19854	9.79476	2224.99998	8.5	2.78942	0.34117	0.34158	-0.00732	5.85477	18.19361	-8.14844	0.36772	136.03846	12.95674	14.39562	15.4438	16.08052	16.73118	0.20472	110.8677
	708.9648	2.20948	9.93211	2224.14278	8.5	2.8081	0.29821	0.33518	-0.00605	5.85298	18.18803	-9.67188	0.36548	134.86355	13.1202	14.79191	15.72124	16.39749	17.02931	0.20465	107.2954
	709.1172	2.21695	10.03512	2245.62508	8.5	2.83413	0.29504	0.31631	-0.00583	5.85118	18.18245	-11.20536	0.36353	133.85975	14.35804	16.51148	17.60938	18.31228	19.07351	0.20458	103.2772
	709.2696	2.2274	10.18391	2252.37429	8.5	2.80004	0.3002	0.31637	-0.00522	5.84939	18.17687	-11.9375	0.3616	132.8782	14.44923	16.58634	17.64129	18.33797	19.0743	0.20451	103.5961
	709.422	2.2153	10.32126	2239.85715	8.5	2.78329	0.32098	0.31917	-0.00726	5.84759	18.17129	-12.29688	0.36112	132.63424	13.99976	15.7575	16.7483	17.42319	18.0975	0.20445	101.7139
	709.5744	2.21136	10.41283	2258.62623	8.5	2.75344	0.32489	0.33029	-0.00726	5.8458	18.16571	-13.03571	0.36665	135.47379	13.26235	14.82218	15.80168	16.47218	17.09378	0.20438	102.8298
	709.7268	2.21523	10.55018	2258.99941	8.5	2.74157	0.32432	0.3413	-0.0051	5.844	18.16014	-13.94531	0.37289	138.82756	12.05639	13.41228	14.33554	14.90185	15.47962	0.20431	106.6253
	709.8792	2.22356	10.68753	2266.71485	8.5	2.74863	0.31272	0.35645	-0.00166	5.84221	18.15456	-15.22656	0.37403	139.46075	11.65806	13.08436	13.9847	14.51043	15.07901	0.20424	110.9634
	710.0316	2.2241	10.85922	2272.75097	8.5	2.75272	0.32806	0.33699	-0.00003	5.84041	18.14898	-16.85714	0.37479	139.88016	12.96908	14.73941	15.65272	16.20265	16.82848	0.20418	112.973
	710.184	2.21817	10.89356	2253.14314	8.5	2.76349	0.31533	0.33103	-0.00022	5.83862	18.1434	-17.39844	0.37191	138.29312	13.23533	15.1715	16.01288	16.50916	17.12681	0.20411	110.07
	710.3364	2.21749	10.91644	2262.62558	8.5	2.78989	0.29751	0.32587	0.00069	5.83682	18.13782	-17.44531	0.36923	136.84404	12.74195	14.53953	15.33708	15.80509	16.39838	0.20404	109.8467
	710.4888	2.21609	10.91644	2279.37609	8.5	2.84397	0.31201	0.31574	0.00183	5.83503	18.13224	-17.41964	0.37287	138.81735	12.10234	13.70567	14.41492	14.81611	15.3528	0.20397	108.922
