~VERSION	INFORMATION																				
VERS	.	2	:CWLS	Log	ASCII	Standard	-	VERSION	2												
WRAP	.	NO	:One	Line	per	Depth	step														
PROD	.	Schlumberger	Technology	Corp.	:LAS	Producer															
PROG	.	Horizon	LASWriter	7.3.92069.3100	:LAS	Program	name	and	version												
SOURCE.	2-Main[4]/Up	:Run&Pass	Information																		
CREA	.	11/27/2017	:LAS	Creation	date	{MM/DD/YYYY}															
#--------------------------------------------------																					
~WELL	INFORMATION																				
#MNEM	.UNIT	DATA	:DESCRIPTION																		
#----	------	--------------	-----------------------------																		
STRT	.m	289.8648	:START	DEPTH																	
STOP	.m	1205.6364	:STOP	DEPTH																	
STEP	.m	0.1524	:STEP																		
NULL	.	-999.25	:NULL	VALUE																	
COMP	.	:COMPANY																			
WELL	.	H-8	:WELL	NAME																	
FLD	.	:FIELD	NAME																		
RIGN	.	:Rig	Name																		
RIGTYP	.	Land	:Rig	Type																	
SON	.	CYTN-00096	:Service	Order	Number																
SRVC	.	Schlumberger	:SERVICE	COMPANY																	
DATE	.	:LOG	DATE(Composite	Date	for	Composite	LAP)	(MM/DD/YYYY)													
CLAB	.	Prefecture:	:County	Label																	
CNTY	.	:COUNTY																			
SLAB	.	Rig	Name	:State/Province	Label																
STAT	.	:STATE	or	PROVINCE																	
PROV	.	:STATE	or	PROVINCE																	
CTRY	.	:COUNTRY																			
CONT_REGION	.	Asia	:Continent	Region																	
SECT	.	:Section																			
TOWN	.	:Township																			
RANG	.	:Range																			
API	.	:API	NUMBER																		
UWI	.	:UNIQUE	WELL	ID																	
LUL	.	PATW	:Logging	Unit	Location																
LUN	.	OSLC#2147	:Logging	Unit	Number																
LOC	.	:FIELD	LOCATION																		
FL1	.	:Field	Location	Line	1																
FL2	.	:Field	Location	Line	2																
LATI	.deg	:LATITUDE																			
LONG	.deg	:LONGITUDE																			
PDAT	.	GL	:Local	Permanent	Datum																
LMF	.	GL	:Logging	Measured	From																
APD	.m	0	:Elevation	of	Depth	Reference	(LMF)	Above	Permanent	Datum											
EPD	.m	14.09	:Elevation	of	Permanent	Datum	(PDAT)	above	Mean	Sea	Level										
EKB	.m	-999.25	:Elevation	of	Kelly	Bushing	Above	Permanent	Datum												
EDF	.m	20.19	:Elevation	of	Drill	Floor	Above	Permanent	Datum												
EGL	.m	0	:Elevation	of	Ground	Level	Above	Permanent	Datum												
ECF	.m	-999.25	:Elevation	of	Casing	Flange	above	Permanent	Datum												
#--------------------------------------------------																					
~CURVE	INFORMATION																				
#MNEM	.UNIT	API	CODE	:DESCRIPTION																	
#----	------	--------------	-----------------------------																		
DEPT	.m	:	Depth	Index																	
RHOZ	.g/cm3	:	(HDRS-H)	(2in)	Standard	Resolution	Formation	Density													
CALI	.in	:	(HDRS-H)	(1in)	Caliper																
TENS	.lbf	:	(WLWorkflow)	(6in)	Cable	Tension															
BS	.in	:(RT)	(Borehole)	(6in)	Bit	Size															
PEFZ	.	:	(HDRS-H)	(2in)	Standard	Resolution	Formation	Photoelectric	Factor												
NPHI	.m3/m3	:	(HGNS-H)	(6in)	Thermal	Neutron	Porosity	(original	Ratio	Method)	in	Selected	Lithology								
TNPH	.m3/m3	:	(HGNS-H)	(6in)	Thermal	Neutron	Porosity	(Ratio	Method)	in	Selected	Lithology									
HDRA	.g/cm3	:	(HDRS-H)	(2in)	Density	Standoff	Correction														
ICV	.m3	:(RT)	(Borehole)	(6in)	Integrated	Cement	Volume														
IHV	.m3	:(RT)	(Borehole)	(6in)	Integrated	Hole	Volume														
SP	.mV	:	(SPA-A)	(6in)	Spontaneous	Potential															
SPHI	.m3/m3	:	(DSLT-H)	(6in)	Sonic	Porosity															
DT	.us/ft	:	(DSLT-H)	(6in)	Delta-T	(also	called	Slowness	or	Interval	Transit	Time)									
RLA1	.ohm.m	:	(HRLT-B)	(2in)	Apparent	Resistivity	from	Computed	Focusing	Mode	1										
RLA2	.ohm.m	:	(HRLT-B)	(2in)	Apparent	Resistivity	from	Computed	Focusing	Mode	2										
RLA3	.ohm.m	:	(HRLT-B)	(2in)	Apparent	Resistivity	from	Computed	Focusing	Mode	3										
RLA4	.ohm.m	:	(HRLT-B)	(2in)	Apparent	Resistivity	from	Computed	Focusing	Mode	4										
RLA5	.ohm.m	:	(HRLT-B)	(2in)	Apparent	Resistivity	from	Computed	Focusing	Mode	5										
ITT	.s	:	(DSLT-H)	(6in)	Integrated	Transit	Time														
GR	.gAPI	:	(HGNS-H)	(6in)	Gamma	Ray															
#-------------------------------------------------------------																					
#	DEPT	RHOZ	CALI	TENS	BS	PEFZ	NPHI	TNPH	HDRA	ICV	IHV	SP	SPHI	DT	RLA1	RLA2	RLA3	RLA4	RLA5	ITT	GR
#	(HDRS-H)	(HDRS-H)	(WLWorkflo)	(Borehole)	(HDRS-H)	(HGNS-H)	(HGNS-H)	(HDRS-H)	(Borehole)	(Borehole)	(SPA-A)	(DSLT-H)	(DSLT-H)	(HRLT-B)	(HRLT-B)	(HRLT-B)	(HRLT-B)	(HRLT-B)	(DSLT-H)	(HGNS-H)	
#	(RT)	(RT)	(RT)																		
#	(2in)	(1in)	(6in)	(6in)	(2in)	(6in)	(6in)	(2in)	(6in)	(6in)	(6in)	(6in)	(6in)	(2in)	(2in)	(2in)	(2in)	(2in)	(6in)	(6in)	
~ASCII																					
# ...
	584.454	2.13417	8.76464	2026.125	8.5	2.71414	0.36779	0.38581	-0.00512	7.31975	22.74607	4.83594	0.38659	146.80363	16.892	19.76806	21.5797	22.70721	24.12113	0.262	116.3541
	584.6064	2.11724	8.74175	2026.28573	8.5	2.75237	0.33338	0.37301	-0.00266	7.31795	22.74049	5.00893	0.38688	146.98297	16.64074	19.45232	21.1962	22.44146	23.72608	0.26193	113.8978
	584.7588	2.11944	8.70741	2021.87498	8.5	2.76501	0.34326	0.34571	-0.00285	7.31616	22.73491	5.44531	0.38601	146.45174	16.88151	19.87477	21.74757	22.97772	24.35757	0.26186	112.3351
	584.9112	2.14142	8.71885	2014.37513	8.5	2.75396	0.36204	0.35375	-0.00213	7.31436	22.72933	5.39844	0.38476	145.68882	18.1161	21.50144	23.54498	24.95671	26.23148	0.26178	109.5281
	585.0636	2.16513	8.74175	2017	8.5	2.71627	0.38097	0.36546	-0.00147	7.31257	22.72375	5.09375	0.38247	144.30951	17.70789	20.92128	22.83212	23.9638	25.3976	0.26171	117.3421
	585.216	2.17168	8.74175	2026.75019	8.5	2.69255	0.36756	0.38247	0.00115	7.31077	22.71817	4.91071	0.38088	143.36948	17.48549	20.50012	22.36694	23.60053	24.84471	0.26164	118.4583
	585.3684	2.16258	8.71885	2022.28571	8.5	2.67882	0.34599	0.36626	-0.00266	7.30898	22.71259	4.50781	0.38097	143.4244	16.83164	19.67179	21.35433	22.5871	23.69804	0.26157	120.7867
	585.5208	2.15054	8.69596	2017.25021	8.5	2.70321	0.33337	0.35486	-0.00631	7.30718	22.70702	4.15625	0.38245	144.30134	17.08013	19.70408	21.41638	22.52842	23.68984	0.2615	114.3445
	585.6732	2.14733	8.69596	2013.37496	8.5	2.72874	0.36485	0.34642	-0.00788	7.30538	22.70144	4	0.38474	145.67252	17.41137	20.01286	21.71437	22.76476	23.99782	0.26142	122.3823
	585.8256	2.13819	8.74175	2019.71457	8.5	2.7394	0.35954	0.37544	-0.0057	7.30359	22.69586	4.08594	0.38546	146.11521	17.29208	19.93548	21.62896	22.73821	23.91958	0.26135	124.6147
	585.978	2.12671	8.74175	2026.00023	8.5	2.70347	0.39113	0.37559	-0.00499	7.30179	22.69028	4.44531	0.38621	146.57143	16.66611	19.21217	20.88057	21.91255	23.04006	0.26128	121.2337
	586.1304	2.11556	8.74175	2021.87498	8.5	2.68998	0.36933	0.38254	-0.00627	7.3	22.6847	4.83036	0.3869	146.99644	16.21007	18.54109	20.10912	21.05465	22.15973	0.26121	117.2783
	586.2828	2.12815	8.69596	2008.62519	8.5	2.70018	0.39834	0.36806	-0.00861	7.2982	22.67912	4.65625	0.38573	146.2812	16.74481	19.2668	20.93492	21.92972	23.03441	0.26113	117.5018
	586.4352	2.15167	8.69596	2011.42856	8.5	2.73652	0.3987	0.39492	-0.00968	7.29641	22.67354	4.1875	0.38479	145.70677	17.28726	20.03085	21.58752	22.55762	23.72995	0.26106	116.6087
	586.5876	2.16348	8.69596	2021.62522	8.5	2.78687	0.39441	0.39744	-0.00859	7.29461	22.66796	4.08929	0.38451	145.53612	17.33321	20.12343	21.66271	22.62531	23.78623	0.26099	115.8437
	586.74	2.1543	8.74175	2035.99995	8.5	2.81125	0.39264	0.40561	-0.00709	7.29281	22.66238	3.85156	0.38477	145.69364	16.68761	19.35153	20.84318	21.76038	22.85365	0.26091	114.2806
	586.8924	2.14072	8.76464	2043.85703	8.5	2.77176	0.40384	0.40421	-0.0064	7.29102	22.65681	3.84375	0.38704	147.08151	16.1175	18.74703	20.25162	21.20572	22.22588	0.26084	114.5043
	587.0448	2.12333	8.76464	2028.00013	8.5	2.68849	0.41057	0.41269	-0.00834	7.28922	22.65123	4.32813	0.38849	147.98409	15.92307	18.35498	19.98987	20.90902	21.98675	0.26077	107.1042
	587.1972	2.10601	8.7303	2019.00013	8.5	2.62969	0.3937	0.40247	-0.01256	7.28743	22.64565	5.00893	0.38838	147.91557	16.37158	18.94452	20.52655	21.59203	22.65167	0.26069	105.3181
	587.3496	2.10672	8.74175	2013.74994	8.5	2.62277	0.35323	0.39061	-0.01139	7.28563	22.64007	5.16406	0.38657	146.79122	17.49244	20.34141	22.04929	23.09283	24.34938	0.26062	111.5689
	587.502	2.1246	8.74175	2030.75021	8.5	2.65208	0.36804	0.37161	-0.00881	7.28384	22.63449	4.80469	0.3847	145.65237	17.3898	20.36454	21.96742	23.07502	24.21891	0.26055	119.8939
	587.6544	2.14643	8.71885	2032.57139	8.5	2.69965	0.36878	0.39005	-0.00395	7.28204	22.62891	3.91964	0.38283	144.52735	16.93622	19.78731	21.4075	22.55641	23.57782	0.26047	121.5206
	587.8068	2.14877	8.69596	2027.50015	8.5	2.75547	0.36714	0.37248	-0.00208	7.28024	22.62333	3.57031	0.38238	144.25733	17.34675	20.22932	21.99614	23.10856	24.22033	0.2604	118.6183
	587.9592	2.13981	8.67307	2016.37503	8.5	2.81232	0.36222	0.35224	-0.00316	7.27845	22.61775	3.64844	0.38148	143.72588	17.11519	19.82528	21.53696	22.59393	23.72779	0.26033	117.5019
	588.1116	2.13308	8.67307	2020.85727	8.5	2.82722	0.32667	0.36246	-0.00958	7.27665	22.61217	3.89844	0.38211	144.09527	17.4476	20.33598	22.11422	23.3801	24.48893	0.26026	120.5636
	588.264	2.129	8.69596	2017.49998	8.5	2.79423	0.33356	0.35101	-0.01515	7.27486	22.60659	4.33929	0.38364	145.01211	17.77928	20.85493	22.69522	23.87894	25.23804	0.26018	114.8863
	588.4164	2.11952	8.69596	2039.42851	8.5	2.73521	0.3034	0.35088	-0.01565	7.27306	22.60102	4.9375	0.3845	145.5303	17.25024	19.99424	21.72226	22.89752	24.08233	0.26011	111.3139
	588.5688	2.12093	8.65018	2036.62492	8.5	2.65653	0.33738	0.31551	-0.01225	7.27127	22.59544	5.00781	0.38535	146.04516	16.61072	19.17262	20.76286	21.80795	22.9512	0.26004	103.7231
	588.7212	2.12569	8.65018	2027.75014	8.5	2.63695	0.3263	0.34036	-0.01705	7.26947	22.58986	4.55357	0.38444	145.49156	16.46855	18.96657	20.46877	21.44323	22.50518	0.25997	107.8053
	588.8736	2.15255	8.68452	2047.14306	8.5	2.66508	0.34906	0.33183	-0.01901	7.26767	22.58428	3.70313	0.38323	144.76613	17.21045	19.84252	21.34345	22.32532	23.38708	0.25989	111.1551
	589.026	2.1691	8.83331	2035	8.5	2.75598	0.37417	0.34498	-0.01839	7.26588	22.5787	3.10938	0.38299	144.62172	17.26315	19.93792	21.38831	22.26929	23.35936	0.25982	115.3973
	589.1784	2.18901	8.90199	2025.62525	8.5	2.80689	0.3985	0.38242	-0.00991	7.26408	22.57312	2.60156	0.3824	144.27318	16.71363	19.21757	20.55861	21.44344	22.40825	0.25975	113.6438
	589.3308	2.19627	8.78753	2026.57147	8.5	2.82436	0.39274	0.40515	-0.00607	7.26229	22.56754	2.5	0.38277	144.4919	16.69619	19.07495	20.47218	21.31819	22.26798	0.25968	113.6425
	589.4832	2.19534	8.75319	2030.87498	8.5	2.83947	0.37904	0.38452	-0.00541	7.26049	22.56196	2.08594	0.38322	144.75933	16.45991	18.74975	20.18758	21.01172	21.89492	0.2596	109.5922
	589.6356	2.19229	8.76464	2046.25012	8.5	2.86711	0.36013	0.37996	-0.00537	7.2587	22.55638	1.67188	0.38215	144.12392	16.70315	19.02828	20.53075	21.45757	22.30236	0.25953	113.3871
	589.788	2.1876	8.94777	2037.14288	8.5	2.87341	0.37771	0.37028	-0.00549	7.2569	22.5508	1.79464	0.38194	143.99581	17.56847	20.37615	21.92989	23.01233	23.94105	0.25946	113.6108
	589.9404	2.18705	9.005	2012.00002	8.5	2.83217	0.36612	0.38604	-0.00625	7.2551	22.54523	1.9375	0.38209	144.08509	17.365	19.98105	21.50398	22.46949	23.4514	0.25939	112.5898
	590.0928	2.17491	8.97066	2025.25004	8.5	2.81014	0.34077	0.37433	-0.01633	7.25331	22.53965	3.11719	0.38135	143.65108	17.24511	19.68727	21.19192	22.11119	23.00374	0.25932	112.3672
	590.2452	2.17021	8.83331	2041.71437	8.5	2.8331	0.34489	0.35781	-0.0262	7.25151	22.53407	3.71875	0.38198	144.02315	17.53763	20.04098	21.57986	22.48157	23.39587	0.25924	111.6973
	590.3976	2.17374	8.79898	2038.49983	8.5	2.90226	0.35838	0.35261	-0.0305	7.24972	22.52849	3.6875	0.38177	143.89706	17.15227	19.6312	21.04296	21.88121	22.76957	0.25917	116.0991
	590.55	2.18151	8.90199	2033.74984	8.5	2.96949	0.40143	0.3557	-0.03093	7.24792	22.52291	3.32031	0.38068	143.2567	17.29877	19.7711	21.13987	21.98112	22.87926	0.2591	115.046
	590.7024	2.18707	9.01644	2025.42876	8.5	2.99109	0.38327	0.39925	-0.02895	7.24613	22.51733	2.90625	0.38093	143.39883	17.94492	20.45473	21.77602	22.70525	23.54817	0.25903	116.3858
	590.8548	2.1852	8.99356	2023.87511	8.5	2.99473	0.37912	0.39564	-0.02518	7.24433	22.51175	2.61607	0.38287	144.55201	17.84933	20.14456	21.47774	22.3294	23.21458	0.25896	123.9767
	591.0072	2.18849	8.90199	2024.99983	8.5	2.97177	0.36076	0.39361	-0.01665	7.24253	22.50617	2.94531	0.38449	145.5231	16.21546	18.10707	19.285	20.00016	20.77813	0.25888	124.5827
	591.1596	2.18914	8.8791	2047.14306	8.5	2.95525	0.37262	0.36864	-0.01232	7.24074	22.50059	3.53125	0.3851	145.89197	17.00493	19.10088	20.29323	21.11764	21.96911	0.25881	127.1665
	591.312	2.19093	8.8791	2047.62505	8.5	2.93641	0.3445	0.3761	-0.01182	7.23894	22.49501	4.14286	0.38535	146.04458	18.09069	20.20978	21.57095	22.40435	23.33815	0.25874	118.6821
