~VERSION	INFORMATION																				
VERS	.	2	:CWLS	Log	ASCII	Standard	-	VERSION	2												
WRAP	.	NO	:One	Line	per	Depth	step														
PROD	.	Schlumberger	Technology	Corp.	:LAS	Producer															
PROG	.	Horizon	LASWriter	7.3.92069.3100	:LAS	Program	name	and	version												
SOURCE.	2-Main[4]/Up	:Run&Pass	Information																		
CREA	.	11/27/2017	:LAS	Creation	date	{MM/DD/YYYY}															
#--------------------------------------------------																					
~WELL	INFORMATION																				
#MNEM	.UNIT	DATA	:DESCRIPTION																		
#----	------	--------------	-----------------------------																		
STRT	.m	289.8648	:START	DEPTH																	
STOP	.m	1205.6364	:STOP	DEPTH																	
STEP	.m	0.1524	:STEP																		
NULL	.	-999.25	:NULL	VALUE																	
COMP	.	:COMPANY																			
WELL	.	H-8	:WELL	NAME																	
FLD	.	:FIELD	NAME																		
RIGN	.	:Rig	Name																		
RIGTYP	.	Land	:Rig	Type																	
SON	.	CYTN-00096	:Service	Order	Number																
SRVC	.	Schlumberger	:SERVICE	COMPANY																	
DATE	.	:LOG	DATE(Composite	Date	for	Composite	LAP)	(MM/DD/YYYY)													
CLAB	.	Prefecture:	:County	Label																	
CNTY	.	:COUNTY																			
SLAB	.	Rig	Name	:State/Province	Label																
STAT	.	:STATE	or	PROVINCE																	
PROV	.	:STATE	or	PROVINCE																	
CTRY	.	:COUNTRY																			
CONT_REGION	.	Asia	:Continent	Region																	
SECT	.	:Section																			
TOWN	.	:Township																			
RANG	.	:Range																			
API	.	:API	NUMBER																		
UWI	.	:UNIQUE	WELL	ID																	
LUL	.	PATW	:Logging	Unit	Location																
LUN	.	OSLC#2147	:Logging	Unit	Number																
LOC	.	:FIELD	LOCATION																		
FL1	.	:Field	Location	Line	1																
FL2	.	:Field	Location	Line	2																
LATI	.deg	:LATITUDE																			
LONG	.deg	:LONGITUDE																			
PDAT	.	GL	:Local	Permanent	Datum																
LMF	.	GL	:Logging	Measured	From																
APD	.m	0	:Elevation	of	Depth	Reference	(LMF)	Above	Permanent	Datum											
EPD	.m	14.09	:Elevation	of	Permanent	Datum	(PDAT)	above	Mean	Sea	Level										
EKB	.m	-999.25	:Elevation	of	Kelly	Bushing	Above	Permanent	Datum												
EDF	.m	20.19	:Elevation	of	Drill	Floor	Above	Permanent	Datum												
EGL	.m	0	:Elevation	of	Ground	Level	Above	Permanent	Datum												
ECF	.m	-999.25	:Elevation	of	Casing	Flange	above	Permanent	Datum												
#--------------------------------------------------																					
~CURVE	INFORMATION																				
#MNEM	.UNIT	API	CODE	:DESCRIPTION																	
#----	------	--------------	-----------------------------																		
DEPT	.m	:	Depth	Index																	
RHOZ	.g/cm3	:	(HDRS-H)	(2in)	Standard	Resolution	Formation	Density													
CALI	.in	:	(HDRS-H)	(1in)	Caliper																
TENS	.lbf	:	(WLWorkflow)	(6in)	Cable	Tension															
BS	.in	:(RT)	(Borehole)	(6in)	Bit	Size															
PEFZ	.	:	(HDRS-H)	(2in)	Standard	Resolution	Formation	Photoelectric	Factor												
NPHI	.m3/m3	:	(HGNS-H)	(6in)	Thermal	Neutron	Porosity	(original	Ratio	Method)	in	Selected	Lithology								
TNPH	.m3/m3	:	(HGNS-H)	(6in)	Thermal	Neutron	Porosity	(Ratio	Method)	in	Selected	Lithology									
HDRA	.g/cm3	:	(HDRS-H)	(2in)	Density	Standoff	Correction														
ICV	.m3	:(RT)	(Borehole)	(6in)	Integrated	Cement	Volume														
IHV	.m3	:(RT)	(Borehole)	(6in)	Integrated	Hole	Volume														
SP	.mV	:	(SPA-A)	(6in)	Spontaneous	Potential															
SPHI	.m3/m3	:	(DSLT-H)	(6in)	Sonic	Porosity															
DT	.us/ft	:	(DSLT-H)	(6in)	Delta-T	(also	called	Slowness	or	Interval	Transit	Time)									
RLA1	.ohm.m	:	(HRLT-B)	(2in)	Apparent	Resistivity	from	Computed	Focusing	Mode	1										
RLA2	.ohm.m	:	(HRLT-B)	(2in)	Apparent	Resistivity	from	Computed	Focusing	Mode	2										
RLA3	.ohm.m	:	(HRLT-B)	(2in)	Apparent	Resistivity	from	Computed	Focusing	Mode	3										
RLA4	.ohm.m	:	(HRLT-B)	(2in)	Apparent	Resistivity	from	Computed	Focusing	Mode	4										
RLA5	.ohm.m	:	(HRLT-B)	(2in)	Apparent	Resistivity	from	Computed	Focusing	Mode	5										
ITT	.s	:	(DSLT-H)	(6in)	Integrated	Transit	Time														
GR	.gAPI	:	(HGNS-H)	(6in)	Gamma	Ray															
#-------------------------------------------------------------																					
#	DEPT	RHOZ	CALI	TENS	BS	PEFZ	NPHI	TNPH	HDRA	ICV	IHV	SP	SPHI	DT	RLA1	RLA2	RLA3	RLA4	RLA5	ITT	GR
#	(HDRS-H)	(HDRS-H)	(WLWorkflo)	(Borehole)	(HDRS-H)	(HGNS-H)	(HGNS-H)	(HDRS-H)	(Borehole)	(Borehole)	(SPA-A)	(DSLT-H)	(DSLT-H)	(HRLT-B)	(HRLT-B)	(HRLT-B)	(HRLT-B)	(HRLT-B)	(DSLT-H)	(HGNS-H)	
#	(RT)	(RT)	(RT)																		
#	(2in)	(1in)	(6in)	(6in)	(2in)	(6in)	(6in)	(2in)	(6in)	(6in)	(6in)	(6in)	(6in)	(2in)	(2in)	(2in)	(2in)	(2in)	(6in)	(6in)	
~ASCII																					
# ...
	1008.126	2.2914	9.06223	2646.12491	8.5	2.82833	0.31281	0.32322	-0.00065	2.32867	7.23645	10.42969	0.33761	121.78378	6.0426	5.62092	5.37413	5.21161	4.91363	0.07774	120.787
	1008.2784	2.28638	9.07367	2665.2494	8.5	2.87343	0.28625	0.3137	-0.00151	2.32688	7.23087	10.29688	0.33812	122.00242	6.05724	5.62644	5.38518	5.22733	4.92501	0.07768	112.1109
	1008.4308	2.2759	9.08512	2674.74983	8.5	2.92837	0.30268	0.30253	-0.00337	2.32508	7.22529	10.60938	0.33838	122.11498	5.7267	5.29956	5.0902	4.9473	4.6711	0.07762	110.1026
	1008.5832	2.27705	9.08512	2659.37514	8.5	2.93101	0.28263	0.31313	-0.00292	2.32329	7.21971	10.89063	0.33772	121.83231	5.617	5.2003	5.01273	4.87267	4.6021	0.07756	111.6652
	1008.7356	2.28003	9.10801	2660.62508	8.5	2.90985	0.29686	0.3014	-0.00197	2.32149	7.21413	10.88281	0.33769	121.81948	5.71388	5.26778	5.06474	4.91287	4.62831	0.0775	113.4201
	1008.888	2.28905	9.1309	2653.50089	8.5	2.87894	0.26857	0.29614	0.00014	2.31969	7.20855	11.08036	0.33718	121.60423	5.87079	5.44067	5.21516	5.05188	4.76124	0.07744	117.6612
	1009.0404	2.28006	9.10801	2661.37594	8.5	2.89687	0.29576	0.2814	-0.00229	2.3179	7.20297	10.83594	0.33578	121.01718	5.781	5.37202	5.15655	4.98939	4.70784	0.07738	116.0987
	1009.1928	2.26931	9.06223	2666.71516	8.5	2.93879	0.29764	0.31608	-0.00468	2.3161	7.19739	11.04688	0.33517	120.75862	5.80668	5.40451	5.16187	5.00737	4.72222	0.07732	118.554
	1009.3452	2.25614	9.03934	2665.37529	8.5	2.99207	0.32416	0.32462	-0.00516	2.31431	7.19181	11.22656	0.33497	120.67919	5.85543	5.44294	5.23152	5.06723	4.78087	0.07726	120.1811
	1009.4976	2.26925	9.06223	2655.87487	8.5	3.04516	0.32325	0.33782	0.00313	2.31251	7.18623	11.77344	0.33602	121.11521	5.72712	5.31812	5.10577	4.94264	4.67362	0.0772	124.6461
	1009.65	2.27684	9.06223	2654.37539	8.5	3.07979	0.32838	0.33554	0.01109	2.31072	7.18066	12.24219	0.33727	121.6405	5.42112	5.00938	4.80862	4.65969	4.40152	0.07714	125.5398
	1009.8024	2.27936	9.01644	2652.87592	8.5	3.06155	0.33305	0.33645	0.01095	2.30892	7.17508	11.96094	0.33819	122.03076	5.50356	5.12314	4.90933	4.76225	4.49212	0.07708	128.3784
	1009.9548	2.27566	8.97066	2660.75098	8.5	2.99153	0.32873	0.34081	0.00523	2.30713	7.1695	11.71094	0.33737	121.68485	5.72313	5.29934	5.07837	4.93323	4.64062	0.07701	128.6018
	1010.1072	2.28377	8.97066	2673.49989	8.5	2.92105	0.32093	0.32708	0.00063	2.30533	7.16392	11.39063	0.33586	121.04836	6.09089	5.64776	5.42104	5.25848	4.95197	0.07695	129.7183
	1010.2596	2.28965	8.99356	2663.85783	8.5	2.89949	0.29526	0.32335	0.00047	2.30353	7.15834	10.85714	0.33358	120.10007	6.0813	5.63654	5.40403	5.24536	4.94438	0.07689	120.7872
	1010.412	2.28922	8.99356	2666.2498	8.5	2.89708	0.29772	0.30905	0.00079	2.30174	7.15276	10.95313	0.33389	120.23135	6.17542	5.69379	5.46095	5.28874	4.98672	0.07683	127.7089
	1010.5644	2.27945	8.99356	2650.74923	8.5	2.91276	0.28674	0.31166	-0.00009	2.29994	7.14718	11.02344	0.33549	120.89349	5.74545	5.31661	5.10458	4.94451	4.67179	0.07677	129.9408
	1010.7168	2.27693	8.99356	2655.87487	8.5	2.91765	0.27455	0.30436	0.00087	2.29815	7.1416	10.9375	0.33727	121.64022	5.82519	5.35387	5.14609	4.98525	4.71366	0.07671	131.9506
	1010.8692	2.27261	8.99356	2659.49879	8.5	2.92136	0.27324	0.29528	0.00117	2.29635	7.13602	10.97656	0.33862	122.21352	5.76237	5.3129	5.11032	4.96244	4.67283	0.07665	129.1437
	1011.0216	2.26993	8.99356	2660.62508	8.5	2.93309	0.28837	0.29178	0.0008	2.29456	7.13044	11.19531	0.33754	121.75708	5.80902	5.35963	5.13391	4.9917	4.70829	0.07659	124.9018
	1011.174	2.27165	8.99356	2659.28522	8.5	2.91675	0.31016	0.29997	0.00017	2.29276	7.12486	10.6875	0.33654	121.33332	5.9118	5.46627	5.22972	5.09545	4.79133	0.07653	127.1342
	1011.3264	2.26825	9.05078	2646.62398	8.5	2.91249	0.30499	0.3188	-0.00152	2.29097	7.11928	10.21094	0.33527	120.80248	5.83821	5.40695	5.17682	5.01708	4.73653	0.07647	122.5732
	1011.4788	2.26593	9.08512	2654.37539	8.5	2.89231	0.29234	0.30695	-0.00261	2.28917	7.1137	9.78906	0.33437	120.42691	5.82682	5.40104	5.17486	5.01679	4.73034	0.07641	128.6012
	1011.6312	2.26368	9.08512	2647.1253	8.5	2.89432	0.29223	0.30395	-0.00267	2.28737	7.10812	9.36607	0.33396	120.25832	5.98795	5.53948	5.32291	5.1525	4.86184	0.07635	125.9222
	1011.7836	2.27321	9.06223	2671.00001	8.5	2.91358	0.30489	0.30789	0.00167	2.28558	7.10254	9.36719	0.33461	120.52877	5.82355	5.40952	5.20223	5.02953	4.74158	0.07629	129.0475
	1011.936	2.29574	9.06223	2658.87607	8.5	2.95001	0.32344	0.31299	0.00974	2.28378	7.09696	9.79688	0.33645	121.29553	5.80335	5.37047	5.17391	5.00382	4.7144	0.07623	120.5641
	1012.0884	2.30161	9.1309	2664.50079	8.5	2.99133	0.31752	0.33092	0.01335	2.28199	7.09138	9.92188	0.33681	121.44869	5.60122	5.20494	4.9964	4.84288	4.55726	0.07617	122.1268
	1012.2408	2.30072	9.22247	2655.49944	8.5	3.03066	0.28046	0.33668	0.01394	2.28019	7.0858	9.85938	0.33672	121.40909	5.92792	5.47253	5.24011	5.07443	4.77479	0.07611	119.4477
	1012.3932	2.29032	9.24536	2654.57098	8.5	3.06536	0.28857	0.30758	0.01354	2.2784	7.08022	9.89844	0.33758	121.77482	5.73351	5.33146	5.11151	4.96333	4.66149	0.07605	127.3894
	1012.5456	2.28768	9.26825	2652.37459	8.5	3.10605	0.29018	0.30302	0.0165	2.2766	7.07465	9.66071	0.33824	122.05387	5.23218	4.8519	4.65404	4.50658	4.23436	0.07599	134.7572
	1012.698	2.28104	9.21102	2659.49879	8.5	3.09659	0.33607	0.29856	0.0152	2.27481	7.06907	9.47656	0.33901	122.38034	5.11126	4.7427	4.54714	4.40785	4.14618	0.07592	135.8736
	1012.8504	2.27169	9.22247	2660.87462	8.5	3.05502	0.32973	0.33601	0.01029	2.27301	7.06349	10.07813	0.34023	122.90609	5.36811	5.01273	4.78421	4.64183	4.36295	0.07586	135.2995
	1013.0028	2.27293	9.22247	2660.87462	8.5	2.99266	0.32794	0.33084	0.00588	2.27122	7.05791	10.17969	0.33828	122.06856	5.65423	5.21343	4.99719	4.83803	4.54511	0.0758	131.5035
	1013.1552	2.27282	9.35982	2655.00036	8.5	2.95472	0.32051	0.33927	0.00398	2.26942	7.05233	9.61719	0.3372	121.61377	5.76514	5.33961	5.10275	4.94748	4.64407	0.07574	133.7367
	1013.3076	2.27262	9.38271	2658.62428	8.5	2.9223	0.2997	0.34573	0.00297	2.26762	7.04675	10.1875	0.33686	121.46734	5.56411	5.1755	4.9517	4.79413	4.51218	0.07568	132.6203
	1013.46	2.26875	9.31404	2663.14294	8.5	2.90722	0.28974	0.31833	0.00211	2.26583	7.04117	10.22656	0.33786	121.89293	5.59075	5.16367	4.9484	4.7934	4.49546	0.07562	131.249
	1013.6124	2.26738	9.19958	2652.50049	8.5	2.89709	0.24727	0.30248	0.00202	2.26403	7.03559	9.72656	0.33784	121.88309	5.60118	5.15766	4.95517	4.8	4.49929	0.07556	123.6573
	1013.7648	2.26298	9.22247	2666.49934	8.5	2.90223	0.27183	0.26855	0.00132	2.26224	7.03001	9.44531	0.33658	121.35173	5.81373	5.39106	5.18065	5.01527	4.71462	0.0755	121.8709
	1013.9172	2.26384	9.35982	2660.37554	8.5	2.89489	0.27297	0.27873	0.00188	2.26044	7.02443	9.15625	0.33561	120.94565	5.77295	5.35049	5.12415	4.96471	4.66984	0.07544	117.2148
	1014.0696	2.26827	9.52006	2666.74888	8.5	2.90286	0.30025	0.28212	0.00406	2.25865	7.01885	8.46875	0.3335	120.06965	5.84776	5.42056	5.18559	5.01964	4.72163	0.07538	116.7684
	1014.222	2.26771	9.58874	2670.50094	8.5	2.90185	0.25879	0.3085	0.00487	2.25685	7.01327	8.82813	0.33378	120.18554	5.94974	5.50915	5.28095	5.12404	4.81843	0.07532	119.2244
	1014.3744	2.2672	9.56584	2659.49879	8.5	2.92918	0.26458	0.27582	0.00549	2.25506	7.00769	8.64063	0.3345	120.48174	5.82681	5.41249	5.19162	5.0324	4.73684	0.07526	127.9315
	1014.5268	2.27255	9.54295	2649.75107	8.5	2.92861	0.26946	0.28639	0.00252	2.25326	7.00211	8.57813	0.33547	120.88429	5.68986	5.27388	5.06086	4.90303	4.61045	0.0752	136.2246
	1014.6792	2.28936	9.47428	2648.62478	8.5	2.93226	0.29718	0.28067	0.00527	2.25147	6.99653	8.78571	0.33669	121.39629	5.75452	5.33822	5.12746	4.96445	4.68377	0.07513	134.4386
	1014.8316	2.29637	9.6803	2644.28597	8.5	2.91271	0.33061	0.31001	0.00848	2.24967	6.99095	8.61719	0.33689	121.48151	5.726	5.31847	5.10764	4.94572	4.65303	0.07507	125.2845
	1014.984	2.29228	9.84054	2645.87537	8.5	2.91177	0.31998	0.34157	0.0124	2.24787	6.98537	8.85156	0.33555	120.91712	5.80475	5.39611	5.17629	5.02281	4.72241	0.07501	121.0104
	1015.1364	2.28739	9.86343	2657.99931	8.5	2.91995	0.30048	0.33039	0.01321	2.24608	6.97979	8.60938	0.33543	120.86746	5.91862	5.49523	5.28205	5.11224	4.80646	0.07495	123.9128
