~VERSION	INFORMATION																				
VERS	.	2	:CWLS	Log	ASCII	Standard	-	VERSION	2												
WRAP	.	NO	:One	Line	per	Depth	step														
PROD	.	Schlumberger	Technology	Corp.	:LAS	Producer															
PROG	.	Horizon	LASWriter	7.3.92069.3100	:LAS	Program	name	and	version												
SOURCE.	2-Main[4]/Up	:Run&Pass	Information																		
CREA	.	11/27/2017	:LAS	Creation	date	{MM/DD/YYYY}															
#--------------------------------------------------																					
~WELL	INFORMATION																				
#MNEM	.UNIT	DATA	:DESCRIPTION																		
#----	------	--------------	-----------------------------																		
STRT	.m	289.8648	:START	DEPTH																	
STOP	.m	1205.6364	:STOP	DEPTH																	
STEP	.m	0.1524	:STEP																		
NULL	.	-999.25	:NULL	VALUE																	
COMP	.	:COMPANY																			
WELL	.	H-8	:WELL	NAME																	
FLD	.	:FIELD	NAME																		
RIGN	.	:Rig	Name																		
RIGTYP	.	Land	:Rig	Type																	
SON	.	CYTN-00096	:Service	Order	Number																
SRVC	.	Schlumberger	:SERVICE	COMPANY																	
DATE	.	:LOG	DATE(Composite	Date	for	Composite	LAP)	(MM/DD/YYYY)													
CLAB	.	Prefecture:	:County	Label																	
CNTY	.	:COUNTY																			
SLAB	.	Rig	Name	:State/Province	Label																
STAT	.	:STATE	or	PROVINCE																	
PROV	.	:STATE	or	PROVINCE																	
CTRY	.	:COUNTRY																			
CONT_REGION	.	Asia	:Continent	Region																	
SECT	.	:Section																			
TOWN	.	:Township																			
RANG	.	:Range																			
API	.	:API	NUMBER																		
UWI	.	:UNIQUE	WELL	ID																	
LUL	.	PATW	:Logging	Unit	Location																
LUN	.	OSLC#2147	:Logging	Unit	Number																
LOC	.	:FIELD	LOCATION																		
FL1	.	:Field	Location	Line	1																
FL2	.	:Field	Location	Line	2																
LATI	.deg	:LATITUDE																			
LONG	.deg	:LONGITUDE																			
PDAT	.	GL	:Local	Permanent	Datum																
LMF	.	GL	:Logging	Measured	From																
APD	.m	0	:Elevation	of	Depth	Reference	(LMF)	Above	Permanent	Datum											
EPD	.m	14.09	:Elevation	of	Permanent	Datum	(PDAT)	above	Mean	Sea	Level										
EKB	.m	-999.25	:Elevation	of	Kelly	Bushing	Above	Permanent	Datum												
EDF	.m	20.19	:Elevation	of	Drill	Floor	Above	Permanent	Datum												
EGL	.m	0	:Elevation	of	Ground	Level	Above	Permanent	Datum												
ECF	.m	-999.25	:Elevation	of	Casing	Flange	above	Permanent	Datum												
#--------------------------------------------------																					
~CURVE	INFORMATION																				
#MNEM	.UNIT	API	CODE	:DESCRIPTION																	
#----	------	--------------	-----------------------------																		
DEPT	.m	:	Depth	Index																	
RHOZ	.g/cm3	:	(HDRS-H)	(2in)	Standard	Resolution	Formation	Density													
CALI	.in	:	(HDRS-H)	(1in)	Caliper																
TENS	.lbf	:	(WLWorkflow)	(6in)	Cable	Tension															
BS	.in	:(RT)	(Borehole)	(6in)	Bit	Size															
PEFZ	.	:	(HDRS-H)	(2in)	Standard	Resolution	Formation	Photoelectric	Factor												
NPHI	.m3/m3	:	(HGNS-H)	(6in)	Thermal	Neutron	Porosity	(original	Ratio	Method)	in	Selected	Lithology								
TNPH	.m3/m3	:	(HGNS-H)	(6in)	Thermal	Neutron	Porosity	(Ratio	Method)	in	Selected	Lithology									
HDRA	.g/cm3	:	(HDRS-H)	(2in)	Density	Standoff	Correction														
ICV	.m3	:(RT)	(Borehole)	(6in)	Integrated	Cement	Volume														
IHV	.m3	:(RT)	(Borehole)	(6in)	Integrated	Hole	Volume														
SP	.mV	:	(SPA-A)	(6in)	Spontaneous	Potential															
SPHI	.m3/m3	:	(DSLT-H)	(6in)	Sonic	Porosity															
DT	.us/ft	:	(DSLT-H)	(6in)	Delta-T	(also	called	Slowness	or	Interval	Transit	Time)									
RLA1	.ohm.m	:	(HRLT-B)	(2in)	Apparent	Resistivity	from	Computed	Focusing	Mode	1										
RLA2	.ohm.m	:	(HRLT-B)	(2in)	Apparent	Resistivity	from	Computed	Focusing	Mode	2										
RLA3	.ohm.m	:	(HRLT-B)	(2in)	Apparent	Resistivity	from	Computed	Focusing	Mode	3										
RLA4	.ohm.m	:	(HRLT-B)	(2in)	Apparent	Resistivity	from	Computed	Focusing	Mode	4										
RLA5	.ohm.m	:	(HRLT-B)	(2in)	Apparent	Resistivity	from	Computed	Focusing	Mode	5										
ITT	.s	:	(DSLT-H)	(6in)	Integrated	Transit	Time														
GR	.gAPI	:	(HGNS-H)	(6in)	Gamma	Ray															
#-------------------------------------------------------------																					
#	DEPT	RHOZ	CALI	TENS	BS	PEFZ	NPHI	TNPH	HDRA	ICV	IHV	SP	SPHI	DT	RLA1	RLA2	RLA3	RLA4	RLA5	ITT	GR
#	(HDRS-H)	(HDRS-H)	(WLWorkflo)	(Borehole)	(HDRS-H)	(HGNS-H)	(HGNS-H)	(HDRS-H)	(Borehole)	(Borehole)	(SPA-A)	(DSLT-H)	(DSLT-H)	(HRLT-B)	(HRLT-B)	(HRLT-B)	(HRLT-B)	(HRLT-B)	(DSLT-H)	(HGNS-H)	
#	(RT)	(RT)	(RT)																		
#	(2in)	(1in)	(6in)	(6in)	(2in)	(6in)	(6in)	(2in)	(6in)	(6in)	(6in)	(6in)	(6in)	(2in)	(2in)	(2in)	(2in)	(2in)	(6in)	(6in)	
~ASCII																					
# ...
	766.572	2.22272	8.95922	2335.49964	8.5	2.91651	0.37094	0.3996	-0.00091	5.17436	16.07917	-3.375	0.37894	142.24038	13.6015	14.63288	15.19386	15.50796	15.8312	0.17879	137.2455
	766.7244	2.22283	9.03934	2330.14245	8.5	2.92189	0.34113	0.36507	-0.00456	5.17256	16.07359	-2.92969	0.3756	140.33541	13.29858	14.42501	14.98854	15.25706	15.59181	0.17872	125.1889
	766.8768	2.2249	9.1309	2329.74903	8.5	2.89312	0.33017	0.34136	-0.00673	5.17077	16.06801	-0.89844	0.37247	138.60006	14.47144	15.75284	16.4162	16.77444	17.07854	0.17865	121.6163
	767.0292	2.2155	8.99356	2337.99952	8.5	2.89849	0.349	0.33272	-0.00818	5.16897	16.06243	0.26786	0.3699	137.20154	15.22134	16.71515	17.47368	17.88059	18.19596	0.17858	124.9333
	767.1816	2.20843	9.005	2350.57084	8.5	2.87884	0.36379	0.3479	-0.00739	5.16718	16.05685	0.97656	0.36731	135.82126	14.59978	16.04975	16.78506	17.20204	17.46965	0.17851	130.2917
	767.334	2.1966	9.01644	2368.62524	8.5	2.85877	0.36578	0.35502	-0.00872	5.16538	16.05128	2.375	0.36552	134.88714	14.42509	15.76782	16.44224	16.88658	17.147	0.17844	126.943
	767.4864	2.20004	9.10801	2369.87518	8.5	2.82108	0.38877	0.36322	-0.0096	5.16359	16.0457	3.00781	0.36638	135.33605	14.98215	16.35866	17.14906	17.60227	17.88543	0.17838	124.3594
	767.6388	2.21164	9.22247	2361.42911	8.5	2.8298	0.38508	0.39761	-0.01022	5.16179	16.04012	2.73438	0.36527	134.75729	14.90399	16.26156	17.05963	17.50114	17.83202	0.17831	120.5636
	767.7912	2.22539	9.19958	2369.12432	8.5	2.8745	0.39118	0.38582	-0.00985	5.16	16.03454	1.69531	0.36476	134.49062	15.01092	16.51874	17.32718	17.78113	18.09751	0.17824	123.8168
	767.9436	2.23748	9.23391	2378.37521	8.5	2.93415	0.35455	0.38753	-0.00816	5.1582	16.02896	-0.70536	0.36129	132.7219	15.43649	17.06372	17.77486	18.29708	18.65468	0.17818	119.7984
	768.096	2.26122	9.29115	2383.12542	8.5	2.93793	0.33666	0.36483	-0.00698	5.15641	16.02338	-3.90625	0.35667	130.43846	16.24165	17.86225	18.68274	19.201	19.55725	0.17811	120.468
	768.2484	2.28915	9.4056	2394.75029	8.5	2.92797	0.29807	0.35719	-0.00467	5.15461	16.0178	-8.96875	0.3539	129.10273	16.28481	17.9032	18.74242	19.21333	19.62508	0.17804	125.5713
	768.4008	2.31241	9.63452	2392.14251	8.5	2.90277	0.28387	0.3159	-0.00316	5.15281	16.01222	-12.69643	0.35096	127.71845	16.22474	17.85521	18.71492	19.21373	19.64535	0.17798	127.5802
	768.5532	2.32038	9.65741	2404.6239	8.5	2.89829	0.26249	0.29608	-0.00029	5.15102	16.00664	-15.01563	0.35228	128.33772	15.98295	17.67413	18.47817	18.98684	19.44374	0.17792	124.9013
	768.7056	2.31141	9.6803	2402.12402	8.5	2.91107	0.26869	0.2825	-0.00044	5.14922	16.00106	-16.58594	0.35387	129.08948	15.91802	17.5249	18.35534	18.84805	19.32603	0.17785	123.0195
	768.858	2.29807	9.65741	2403.14241	8.5	2.90412	0.28785	0.28536	-0.00246	5.14743	15.99549	-17.41964	0.3536	128.95884	16.04302	17.84131	18.6491	19.15139	19.66055	0.17779	125.3164
	769.0104	2.2853	9.65741	2395.87433	8.5	2.90918	0.34587	0.30684	-0.00393	5.14563	15.98991	-17.74219	0.35269	128.53224	16.57609	18.47965	19.35093	19.84635	20.33341	0.17772	128.2186
	769.1628	2.29092	9.70319	2376.99938	8.5	2.90115	0.3386	0.35319	-0.00139	5.14384	15.98433	-18.15625	0.35108	127.7749	16.95526	19.01914	19.85881	20.3073	20.87744	0.17766	122.4137
	769.3152	2.3054	9.79476	2356.57099	8.5	2.92008	0.34162	0.32946	-0.0033	5.14204	15.97875	-18.24219	0.34977	127.16491	16.82918	18.99496	19.90261	20.30241	20.85419	0.17759	119.3516
	769.4676	2.31576	9.74898	2365.74994	8.5	2.93103	0.30952	0.33723	-0.00249	5.14025	15.97317	-18.14286	0.35058	127.54133	16.74144	18.88485	19.77013	20.14243	20.71101	0.17753	120.2451
	769.62	2.3171	9.79476	2355.99997	8.5	2.93283	0.32757	0.3256	-0.00259	5.13845	15.96759	-18.08594	0.35165	128.04185	16.41783	18.50149	19.3808	19.74824	20.34606	0.17747	121.3613
	769.7724	2.32014	9.84054	2363.71541	8.5	2.93132	0.29314	0.34852	0.00388	5.13666	15.96201	-18.01563	0.35277	128.56784	16.75237	18.66106	19.50089	19.86341	20.49349	0.1774	122.3502
	769.9248	2.31563	9.79476	2375.99898	8.5	2.93481	0.27931	0.31108	0.0035	5.13486	15.95643	-17.72322	0.35267	128.51999	16.8372	18.59338	19.37906	19.77591	20.3665	0.17734	123.2749
	770.0772	2.31237	9.79476	2383.50085	8.5	2.95528	0.25288	0.30189	0.00241	5.13307	15.95085	-17.47656	0.35159	128.01237	16.86899	18.51645	19.27596	19.67835	20.27544	0.17727	125.0615
	770.2296	2.31	9.84054	2392.99903	8.5	2.97808	0.30028	0.26697	0.00286	5.13127	15.94527	-17.39844	0.35186	128.13783	16.36155	18.00734	18.72073	19.1801	19.76804	0.17721	126.6242
	770.382	2.32208	9.84054	2371.71412	8.5	2.98338	0.31268	0.30516	0.00588	5.12948	15.9397	-17.29464	0.351	127.73595	16.53272	18.26784	18.98891	19.47259	20.03801	0.17715	125.8588
	770.5344	2.33236	9.61163	2332.62434	8.5	2.95903	0.3391	0.31068	0.00765	5.12768	15.93412	-16.72656	0.35026	127.3915	16.89327	18.57679	19.34474	19.91467	20.42539	0.17708	125.1888
	770.6868	2.32746	9.4056	2336.50004	8.5	2.92836	0.32517	0.33175	0.00551	5.12589	15.92854	-15.53906	0.34721	125.9964	17.13782	18.86785	19.71414	20.25135	20.78648	0.17702	126.5282
	770.8392	2.31174	9.5315	2352.42776	8.5	2.91975	0.31745	0.33117	0.00191	5.12409	15.92296	-14.39844	0.34484	124.9278	17.29614	19.07525	20.03935	20.57159	21.06605	0.17696	122.7964
	770.9916	2.29941	9.54295	2373.37545	8.5	2.91415	0.27889	0.33522	-0.00057	5.12229	15.91738	-13.58036	0.3429	124.06747	16.69224	18.55366	19.47416	20.0321	20.49577	0.17689	123.147
	771.144	2.29628	9.56584	2377.25116	8.5	2.88929	0.27331	0.30453	-0.00176	5.1205	15.9118	-12.88281	0.34398	124.54579	16.69491	18.66393	19.62438	20.16021	20.5811	0.17683	124.2634
	771.2964	2.29645	9.54295	2369.28618	8.5	2.86	0.29519	0.30178	-0.00277	5.1187	15.90622	-12.80469	0.3469	125.8528	17.13683	19.18526	20.1634	20.65406	21.0969	0.17677	128.7294
	771.4488	2.29769	9.39416	2368.3757	8.5	2.83815	0.34018	0.30999	-0.00307	5.11691	15.90064	-12.03125	0.34953	127.05686	17.04961	18.93852	19.91456	20.42001	20.82651	0.17671	124.902
	771.6012	2.29386	9.4056	2404.37436	8.5	2.85698	0.3242	0.34968	-0.00195	5.11511	15.89506	-11.09821	0.35286	128.60856	16.41433	18.23261	19.02822	19.52931	19.91474	0.17664	129.5906
	771.7536	2.28709	9.4056	2417.57065	8.5	2.91144	0.31291	0.33401	0.00154	5.11332	15.88948	-9.72656	0.36075	132.45273	15.6278	17.20827	17.95344	18.41221	18.73442	0.17658	129.8137
	771.906	2.26086	9.35982	2407.37556	8.5	2.96873	0.32058	0.33354	0.00106	5.11152	15.88391	-6.23438	0.36696	135.63539	14.17476	15.36139	16.01788	16.39128	16.68782	0.17651	137.532
	772.0584	2.23078	9.33693	2390.75094	8.5	3.01854	0.35359	0.33212	-0.00192	5.10973	15.87833	-2.50781	0.37165	138.15011	14.38156	15.46467	16.08179	16.4047	16.6945	0.17644	131.5038
	772.2108	2.21392	9.19958	2350.24936	8.5	3.00985	0.37561	0.35855	-0.00394	5.10793	15.87275	-1.02679	0.37755	141.44375	14.3382	15.4595	16.06211	16.40541	16.71082	0.17637	130.8019
	772.3632	2.20851	9.22247	2341.28623	8.5	3.00456	0.39192	0.38178	-0.00454	5.10614	15.86717	-0.15625	0.37614	140.64091	14.10745	15.34452	15.86047	16.16244	16.45431	0.1763	125.6671
	772.5156	2.20989	9.18813	2344.50099	8.5	2.98168	0.39675	0.39491	-0.00454	5.10434	15.86159	0.88281	0.37559	140.3316	14.47945	15.88852	16.39038	16.66784	17.01356	0.17623	128.793
	772.668	2.20288	9.08512	2363.25006	8.5	2.99091	0.38285	0.39772	-0.00682	5.10255	15.85601	0.60156	0.37378	139.32079	14.53397	15.92093	16.51921	16.78593	17.13704	0.17616	130.3869
	772.8204	2.20364	9.06223	2382.28463	8.5	3.00343	0.36769	0.39976	-0.00625	5.10075	15.85043	-0.02679	0.37297	138.87066	14.50792	15.74741	16.3812	16.68703	17.01061	0.17609	134.1827
	772.9728	2.20216	9.1538	2401.87448	8.5	3.03957	0.35408	0.3912	-0.00525	5.09896	15.84485	-0.57031	0.37316	138.97542	13.94387	15.11147	15.74885	16.05749	16.35073	0.17602	131.5034
	773.1252	2.20866	9.1538	2406.87424	8.5	3.0437	0.35213	0.36867	-0.00287	5.09716	15.83927	-0.875	0.37326	139.03135	13.84544	14.88733	15.48949	15.8229	16.08935	0.17595	134.1837
	773.2776	2.21625	9.1309	2399.14306	8.5	3.03651	0.35828	0.36011	-0.00082	5.09537	15.83369	-0.8125	0.37339	139.10249	14.21957	15.32508	15.95974	16.39989	16.65475	0.17589	130.3881
	773.43	2.22178	8.99356	2387.12477	8.5	3.00848	0.34566	0.35067	0.00052	5.09357	15.82811	-0.46875	0.37191	138.28992	14.50367	15.66858	16.33557	16.80067	17.07629	0.17582	129.3354
