~VERSION	INFORMATION																				
VERS	.	2	:CWLS	Log	ASCII	Standard	-	VERSION	2												
WRAP	.	NO	:One	Line	per	Depth	step														
PROD	.	Schlumberger	Technology	Corp.	:LAS	Producer															
PROG	.	Horizon	LASWriter	7.3.92069.3100	:LAS	Program	name	and	version												
SOURCE.	2-Main[4]/Up	:Run&Pass	Information																		
CREA	.	11/27/2017	:LAS	Creation	date	{MM/DD/YYYY}															
#--------------------------------------------------																					
~WELL	INFORMATION																				
#MNEM	.UNIT	DATA	:DESCRIPTION																		
#----	------	--------------	-----------------------------																		
STRT	.m	289.8648	:START	DEPTH																	
STOP	.m	1205.6364	:STOP	DEPTH																	
STEP	.m	0.1524	:STEP																		
NULL	.	-999.25	:NULL	VALUE																	
COMP	.	:COMPANY																			
WELL	.	H-8	:WELL	NAME																	
FLD	.	:FIELD	NAME																		
RIGN	.	:Rig	Name																		
RIGTYP	.	Land	:Rig	Type																	
SON	.	CYTN-00096	:Service	Order	Number																
SRVC	.	Schlumberger	:SERVICE	COMPANY																	
DATE	.	:LOG	DATE(Composite	Date	for	Composite	LAP)	(MM/DD/YYYY)													
CLAB	.	Prefecture:	:County	Label																	
CNTY	.	:COUNTY																			
SLAB	.	Rig	Name	:State/Province	Label																
STAT	.	:STATE	or	PROVINCE																	
PROV	.	:STATE	or	PROVINCE																	
CTRY	.	:COUNTRY																			
CONT_REGION	.	Asia	:Continent	Region																	
SECT	.	:Section																			
TOWN	.	:Township																			
RANG	.	:Range																			
API	.	:API	NUMBER																		
UWI	.	:UNIQUE	WELL	ID																	
LUL	.	PATW	:Logging	Unit	Location																
LUN	.	OSLC#2147	:Logging	Unit	Number																
LOC	.	:FIELD	LOCATION																		
FL1	.	:Field	Location	Line	1																
FL2	.	:Field	Location	Line	2																
LATI	.deg	:LATITUDE																			
LONG	.deg	:LONGITUDE																			
PDAT	.	GL	:Local	Permanent	Datum																
LMF	.	GL	:Logging	Measured	From																
APD	.m	0	:Elevation	of	Depth	Reference	(LMF)	Above	Permanent	Datum											
EPD	.m	14.09	:Elevation	of	Permanent	Datum	(PDAT)	above	Mean	Sea	Level										
EKB	.m	-999.25	:Elevation	of	Kelly	Bushing	Above	Permanent	Datum												
EDF	.m	20.19	:Elevation	of	Drill	Floor	Above	Permanent	Datum												
EGL	.m	0	:Elevation	of	Ground	Level	Above	Permanent	Datum												
ECF	.m	-999.25	:Elevation	of	Casing	Flange	above	Permanent	Datum												
#--------------------------------------------------																					
~CURVE	INFORMATION																				
#MNEM	.UNIT	API	CODE	:DESCRIPTION																	
#----	------	--------------	-----------------------------																		
DEPT	.m	:	Depth	Index																	
RHOZ	.g/cm3	:	(HDRS-H)	(2in)	Standard	Resolution	Formation	Density													
CALI	.in	:	(HDRS-H)	(1in)	Caliper																
TENS	.lbf	:	(WLWorkflow)	(6in)	Cable	Tension															
BS	.in	:(RT)	(Borehole)	(6in)	Bit	Size															
PEFZ	.	:	(HDRS-H)	(2in)	Standard	Resolution	Formation	Photoelectric	Factor												
NPHI	.m3/m3	:	(HGNS-H)	(6in)	Thermal	Neutron	Porosity	(original	Ratio	Method)	in	Selected	Lithology								
TNPH	.m3/m3	:	(HGNS-H)	(6in)	Thermal	Neutron	Porosity	(Ratio	Method)	in	Selected	Lithology									
HDRA	.g/cm3	:	(HDRS-H)	(2in)	Density	Standoff	Correction														
ICV	.m3	:(RT)	(Borehole)	(6in)	Integrated	Cement	Volume														
IHV	.m3	:(RT)	(Borehole)	(6in)	Integrated	Hole	Volume														
SP	.mV	:	(SPA-A)	(6in)	Spontaneous	Potential															
SPHI	.m3/m3	:	(DSLT-H)	(6in)	Sonic	Porosity															
DT	.us/ft	:	(DSLT-H)	(6in)	Delta-T	(also	called	Slowness	or	Interval	Transit	Time)									
RLA1	.ohm.m	:	(HRLT-B)	(2in)	Apparent	Resistivity	from	Computed	Focusing	Mode	1										
RLA2	.ohm.m	:	(HRLT-B)	(2in)	Apparent	Resistivity	from	Computed	Focusing	Mode	2										
RLA3	.ohm.m	:	(HRLT-B)	(2in)	Apparent	Resistivity	from	Computed	Focusing	Mode	3										
RLA4	.ohm.m	:	(HRLT-B)	(2in)	Apparent	Resistivity	from	Computed	Focusing	Mode	4										
RLA5	.ohm.m	:	(HRLT-B)	(2in)	Apparent	Resistivity	from	Computed	Focusing	Mode	5										
ITT	.s	:	(DSLT-H)	(6in)	Integrated	Transit	Time														
GR	.gAPI	:	(HGNS-H)	(6in)	Gamma	Ray															
#-------------------------------------------------------------																					
#	DEPT	RHOZ	CALI	TENS	BS	PEFZ	NPHI	TNPH	HDRA	ICV	IHV	SP	SPHI	DT	RLA1	RLA2	RLA3	RLA4	RLA5	ITT	GR
#	(HDRS-H)	(HDRS-H)	(WLWorkflo)	(Borehole)	(HDRS-H)	(HGNS-H)	(HGNS-H)	(HDRS-H)	(Borehole)	(Borehole)	(SPA-A)	(DSLT-H)	(DSLT-H)	(HRLT-B)	(HRLT-B)	(HRLT-B)	(HRLT-B)	(HRLT-B)	(DSLT-H)	(HGNS-H)	
#	(RT)	(RT)	(RT)																		
#	(2in)	(1in)	(6in)	(6in)	(2in)	(6in)	(6in)	(2in)	(6in)	(6in)	(6in)	(6in)	(6in)	(2in)	(2in)	(2in)	(2in)	(2in)	(6in)	(6in)	
~ASCII																					
# ...
	465.2772	2.18345	9.43994	1833.37493	8.5	2.83941	0.32724	0.33306	0.00183	8.72403	27.10884	-2.61719	0.3902	149.06332	15.88211	17.99051	19.43138	20.37864	21.36208	0.31991	109.4643
	465.4296	2.1743	9.54295	1828.87493	8.5	2.90681	0.31876	0.3555	0.00374	8.72223	27.10326	-3.67969	0.39156	149.93344	15.19389	17.09515	18.36732	19.37319	20.32165	0.31984	114.7586
	465.582	2.16289	9.6803	1853.62505	8.5	2.97243	0.366	0.33998	0.0055	8.72043	27.09768	-5.25	0.39288	150.78267	15.46358	17.45634	18.64113	19.72264	20.68459	0.31976	124.4233
	465.7344	2.15793	9.79476	1830.85707	8.5	3.00483	0.35336	0.35866	0.00502	8.71864	27.09211	-6.46875	0.39389	151.44412	15.53289	17.60289	18.83032	19.90693	20.87514	0.31969	125.7624
	465.8868	2.16594	9.88633	1829.37491	8.5	2.98125	0.38173	0.34494	0.00349	8.71684	27.08653	-6.48438	0.39141	149.83227	15.76382	18.00287	19.30679	20.37707	21.4583	0.31961	125.763
	466.0392	2.18625	9.90922	1832.37498	8.5	2.94983	0.34449	0.36448	0.00534	8.71505	27.08095	-5.89844	0.38778	147.5424	16.39627	18.93971	20.3923	21.48338	22.68386	0.31954	127.2618
	466.1916	2.20927	9.89777	1839.87506	8.5	2.91835	0.35919	0.34096	0.01117	8.71325	27.07537	-4.47656	0.38563	146.21472	16.73878	19.26528	20.87015	21.95582	23.27712	0.31946	122.8923
	466.344	2.21666	9.81765	1838.00015	8.5	2.9007	0.33827	0.37062	0.01441	8.71145	27.06979	-3.39286	0.38411	145.29432	16.52422	18.99034	20.60551	21.64306	22.97583	0.31939	119.5433
	466.4964	2.2126	9.77187	1814.25021	8.5	2.8604	0.3475	0.35152	0.01202	8.70966	27.06421	-3	0.38399	145.22211	16.2805	18.78223	20.38372	21.45094	22.80062	0.31932	111.7288
	466.6488	2.20139	9.79476	1831.62502	8.5	2.83331	0.33451	0.36367	0.00766	8.70786	27.05863	-3.05469	0.38521	145.96275	16.19403	18.70225	20.32436	21.35892	22.6613	0.31924	115.6523
	466.8012	2.20034	9.81765	1843.37488	8.5	2.82097	0.34401	0.34998	0.00815	8.70607	27.05305	-2.66964	0.38598	146.43269	16.07255	18.5845	20.15427	21.24602	22.51277	0.31917	116.7679
	466.9536	2.1878	9.79476	1862.42857	8.5	2.82401	0.32871	0.35174	0.00656	8.70427	27.04747	-1.82031	0.38773	147.5086	15.88037	18.28348	19.73921	20.84933	22.07411	0.3191	112.622
	467.106	2.17111	9.74898	1847.99988	8.5	2.83241	0.35008	0.33688	0.00247	8.70248	27.04189	0.15625	0.38876	148.15667	15.04616	17.20833	18.45353	19.45851	20.55477	0.31902	111.2822
	467.2584	2.15839	9.54295	1839.62507	8.5	2.79283	0.32628	0.34309	-0.00305	8.70068	27.03632	1.41964	0.39011	149.00453	15.14995	17.2823	18.58101	19.50598	20.59821	0.31895	107.0405
	467.4108	2.15001	9.4285	1824.00017	8.5	2.75842	0.35462	0.33336	-0.00484	8.69888	27.03074	1.875	0.38995	148.90309	15.90072	18.09523	19.54201	20.45106	21.62979	0.31887	105.6047
	467.5632	2.1601	9.4056	1820.24991	8.5	2.71853	0.34411	0.36325	-0.00055	8.69709	27.02516	2.63281	0.38957	148.66337	16.74179	19.34068	21.0279	22.02208	23.28669	0.3188	108.8902
	467.7156	2.15878	9.4285	1825.5001	8.5	2.71727	0.37589	0.36901	0.00338	8.69529	27.01958	3.09375	0.39026	149.10173	16.58046	19.36605	21.19501	22.16669	23.39686	0.31873	108.8906
	467.868	2.15144	9.4056	1836.5	8.5	2.70943	0.34635	0.39478	0.00301	8.6935	27.014	3.80469	0.39111	149.64342	15.63672	18.23754	19.9212	20.76222	21.91685	0.31865	105.5417
	468.0204	2.13464	9.31404	1845.625	8.5	2.6858	0.33276	0.3475	-0.00198	8.6917	27.00842	4.53125	0.39268	150.65435	16.63228	19.25289	21.0022	21.82038	23.01664	0.31858	100.4701
	468.1728	2.11862	9.1309	1849.62502	8.5	2.6531	0.33591	0.33275	-0.00779	8.68991	27.00284	4.97321	0.39463	151.93213	17.09635	19.88685	21.50856	22.54653	23.75313	0.3185	95.5257
	468.3252	2.10571	9.06223	1833.85715	8.5	2.63588	0.3288	0.33786	-0.00957	8.68811	26.99726	5.26563	0.39565	152.60583	15.78188	18.12688	19.39022	20.35933	21.424	0.31843	98.87483
	468.4776	2.09839	9.01644	1828.37496	8.5	2.62451	0.35044	0.33253	-0.01303	8.68631	26.99168	5.23438	0.39659	153.23381	15.74574	18.13003	19.31164	20.42695	21.3906	0.31835	98.20522
	468.63	2.10375	8.99356	1824.75014	8.5	2.62886	0.306	0.34307	-0.01467	8.68452	26.9861	5.09375	0.39703	153.53163	15.96226	18.24707	19.57492	20.67211	21.61171	0.31827	99.35387
	468.7824	2.12769	8.99356	1814.37498	8.5	2.60766	0.32741	0.30747	-0.01667	8.68272	26.98053	4.64286	0.39566	152.61421	15.96326	18.05272	19.55588	20.57289	21.48321	0.3182	101.3633
	468.9348	2.15801	9.005	1814.24999	8.5	2.58808	0.32792	0.32374	-0.01407	8.68093	26.97495	3.39844	0.39176	150.06032	16.40013	19.14775	20.82949	21.92114	22.90149	0.31812	98.01378
	469.0872	2.18265	9.03934	1836.42851	8.5	2.5885	0.32398	0.32271	-0.01252	8.67913	26.96937	2.07031	0.38814	147.76777	18.30644	21.59162	23.60689	24.88413	26.03274	0.31804	100.4382
	469.2396	2.20391	9.03934	1855.74994	8.5	2.59417	0.35528	0.33212	-0.0089	8.67734	26.96379	1.25781	0.38411	145.2928	19.0072	22.71005	25.01642	26.44307	27.58409	0.31797	103.5637
	469.392	2.1954	9.06223	1843.5001	8.5	2.59255	0.35487	0.36523	-0.00811	8.67554	26.95821	1.42969	0.38325	144.77506	20.30785	24.65331	27.57444	29.0501	30.37174	0.3179	108.2525
	469.5444	2.15556	9.03934	1836.00003	8.5	2.51956	0.35576	0.36638	-0.0108	8.67374	26.95263	3.5	0.38704	147.08539	18.95967	23.12849	25.92951	27.31356	28.61888	0.31783	104.0422
	469.6968	2.09312	8.94777	1827.99997	8.5	2.40894	0.32256	0.35257	-0.01798	8.67195	26.94705	5.41071	0.392	150.21385	17.27484	20.80244	23.08362	24.36377	25.5378	0.31775	91.98618
	469.8492	2.04808	8.8562	1832.24999	8.5	2.31164	0.30753	0.32684	-0.02031	8.67015	26.94147	6.70313	0.39674	153.33263	17.1557	20.50423	22.48163	23.75443	24.97371	0.31768	86.69153
	470.0016	2.03043	8.82187	1826.25006	8.5	2.27648	0.34158	0.32156	-0.02003	8.66836	26.93589	7.6875	0.39926	155.04822	17.81231	21.45202	23.29014	24.57695	25.95552	0.3176	89.81724
	470.154	2.03477	8.83331	1847.99988	8.5	2.30313	0.34397	0.35138	-0.01551	8.66656	26.93032	8.22656	0.39994	155.51094	17.02162	20.30937	21.87735	22.99613	24.3578	0.31752	93.38935
	470.3064	2.04541	8.81042	1842.14293	8.5	2.34611	0.3338	0.35921	-0.01338	8.66476	26.92474	8.125	0.39914	154.96514	17.43647	20.82404	22.50574	23.41881	24.91165	0.31744	95.33508
	470.4588	2.06112	8.83331	1842.12495	8.5	2.42219	0.34778	0.34632	-0.00844	8.66297	26.91916	7.47656	0.39949	155.20349	17.20636	20.26302	21.72768	22.6193	23.99837	0.31737	100.2467
	470.6112	2.07838	8.83331	1855.87516	8.5	2.502	0.38564	0.36697	-0.00804	8.66117	26.91358	6.92188	0.40009	155.61991	17.60082	21.00438	22.75249	23.64028	25.09789	0.31729	110.9635
	470.7636	2.09964	8.82187	1841.125	8.5	2.58495	0.42108	0.38843	-0.0075	8.65938	26.908	6.10938	0.39833	154.40967	17.35542	20.25285	21.85671	22.69575	24.06082	0.31721	115.3973
	470.916	2.12045	8.82187	1840.28578	8.5	2.61176	0.40117	0.41371	-0.00902	8.65758	26.90242	5.41964	0.39472	151.98575	19.12617	21.84954	23.60733	24.62301	25.98888	0.31713	111.8248
	471.0684	2.13392	8.8562	1841.49998	8.5	2.61023	0.39711	0.39013	-0.00742	8.65579	26.89684	5.07813	0.3935	151.18824	19.92734	22.98968	24.98753	26.17411	27.6697	0.31706	106.0202
	471.2208	2.13763	8.8562	1844.50005	8.5	2.57041	0.36161	0.39244	-0.00718	8.65399	26.89126	5.26563	0.38945	148.58589	18.55409	21.09414	22.82299	24.04019	25.27564	0.31698	103.1491
	471.3732	2.13493	8.8791	1847.62512	8.5	2.54769	0.33576	0.3719	-0.00766	8.65219	26.88568	5.04688	0.38803	147.69745	20.01121	23.06463	25.144	26.62337	27.92177	0.31691	96.00485
	471.5256	2.14102	8.8791	1830.0001	8.5	2.55902	0.31384	0.34397	-0.00641	8.6504	26.8801	4.63281	0.38842	147.94248	20.2339	23.64709	25.85559	27.26439	28.5866	0.31683	93.07018
	471.678	2.15297	8.8791	1836.74999	8.5	2.59872	0.31031	0.33146	-0.00478	8.6486	26.87453	4.24107	0.38651	146.75523	20.07848	23.57643	25.83187	27.23845	28.46956	0.31676	95.97253
	471.8304	2.16501	8.8791	1853.62505	8.5	2.6197	0.31517	0.33499	-0.00356	8.64681	26.86895	3.78125	0.38697	147.03936	19.74386	23.0971	25.103	26.52323	27.57556	0.31669	106.2431
	471.9828	2.15962	8.8791	1832.74996	8.5	2.59511	0.29284	0.32762	-0.00519	8.64501	26.86337	3.48438	0.38876	148.15398	18.42939	21.22104	22.81812	24.11857	24.9486	0.31661	107.1678
	472.1352	2.1378	8.8791	1829.1429	8.5	2.56119	0.31383	0.30904	-0.00842	8.64322	26.85779	3.54688	0.39197	150.19279	16.6599	18.92231	20.30317	21.48065	22.1248	0.31654	101.3632
