~VERSION	INFORMATION																				
VERS	.	2	:CWLS	Log	ASCII	Standard	-	VERSION	2												
WRAP	.	NO	:One	Line	per	Depth	step														
PROD	.	Schlumberger	Technology	Corp.	:LAS	Producer															
PROG	.	Horizon	LASWriter	7.3.92069.3100	:LAS	Program	name	and	version												
SOURCE.	2-Main[4]/Up	:Run&Pass	Information																		
CREA	.	11/27/2017	:LAS	Creation	date	{MM/DD/YYYY}															
#--------------------------------------------------																					
~WELL	INFORMATION																				
#MNEM	.UNIT	DATA	:DESCRIPTION																		
#----	------	--------------	-----------------------------																		
STRT	.m	289.8648	:START	DEPTH																	
STOP	.m	1205.6364	:STOP	DEPTH																	
STEP	.m	0.1524	:STEP																		
NULL	.	-999.25	:NULL	VALUE																	
COMP	.	:COMPANY																			
WELL	.	H-8	:WELL	NAME																	
FLD	.	:FIELD	NAME																		
RIGN	.	:Rig	Name																		
RIGTYP	.	Land	:Rig	Type																	
SON	.	CYTN-00096	:Service	Order	Number																
SRVC	.	Schlumberger	:SERVICE	COMPANY																	
DATE	.	:LOG	DATE(Composite	Date	for	Composite	LAP)	(MM/DD/YYYY)													
CLAB	.	Prefecture:	:County	Label																	
CNTY	.	:COUNTY																			
SLAB	.	Rig	Name	:State/Province	Label																
STAT	.	:STATE	or	PROVINCE																	
PROV	.	:STATE	or	PROVINCE																	
CTRY	.	:COUNTRY																			
CONT_REGION	.	Asia	:Continent	Region																	
SECT	.	:Section																			
TOWN	.	:Township																			
RANG	.	:Range																			
API	.	:API	NUMBER																		
UWI	.	:UNIQUE	WELL	ID																	
LUL	.	PATW	:Logging	Unit	Location																
LUN	.	OSLC#2147	:Logging	Unit	Number																
LOC	.	:FIELD	LOCATION																		
FL1	.	:Field	Location	Line	1																
FL2	.	:Field	Location	Line	2																
LATI	.deg	:LATITUDE																			
LONG	.deg	:LONGITUDE																			
PDAT	.	GL	:Local	Permanent	Datum																
LMF	.	GL	:Logging	Measured	From																
APD	.m	0	:Elevation	of	Depth	Reference	(LMF)	Above	Permanent	Datum											
EPD	.m	14.09	:Elevation	of	Permanent	Datum	(PDAT)	above	Mean	Sea	Level										
EKB	.m	-999.25	:Elevation	of	Kelly	Bushing	Above	Permanent	Datum												
EDF	.m	20.19	:Elevation	of	Drill	Floor	Above	Permanent	Datum												
EGL	.m	0	:Elevation	of	Ground	Level	Above	Permanent	Datum												
ECF	.m	-999.25	:Elevation	of	Casing	Flange	above	Permanent	Datum												
#--------------------------------------------------																					
~CURVE	INFORMATION																				
#MNEM	.UNIT	API	CODE	:DESCRIPTION																	
#----	------	--------------	-----------------------------																		
DEPT	.m	:	Depth	Index																	
RHOZ	.g/cm3	:	(HDRS-H)	(2in)	Standard	Resolution	Formation	Density													
CALI	.in	:	(HDRS-H)	(1in)	Caliper																
TENS	.lbf	:	(WLWorkflow)	(6in)	Cable	Tension															
BS	.in	:(RT)	(Borehole)	(6in)	Bit	Size															
PEFZ	.	:	(HDRS-H)	(2in)	Standard	Resolution	Formation	Photoelectric	Factor												
NPHI	.m3/m3	:	(HGNS-H)	(6in)	Thermal	Neutron	Porosity	(original	Ratio	Method)	in	Selected	Lithology								
TNPH	.m3/m3	:	(HGNS-H)	(6in)	Thermal	Neutron	Porosity	(Ratio	Method)	in	Selected	Lithology									
HDRA	.g/cm3	:	(HDRS-H)	(2in)	Density	Standoff	Correction														
ICV	.m3	:(RT)	(Borehole)	(6in)	Integrated	Cement	Volume														
IHV	.m3	:(RT)	(Borehole)	(6in)	Integrated	Hole	Volume														
SP	.mV	:	(SPA-A)	(6in)	Spontaneous	Potential															
SPHI	.m3/m3	:	(DSLT-H)	(6in)	Sonic	Porosity															
DT	.us/ft	:	(DSLT-H)	(6in)	Delta-T	(also	called	Slowness	or	Interval	Transit	Time)									
RLA1	.ohm.m	:	(HRLT-B)	(2in)	Apparent	Resistivity	from	Computed	Focusing	Mode	1										
RLA2	.ohm.m	:	(HRLT-B)	(2in)	Apparent	Resistivity	from	Computed	Focusing	Mode	2										
RLA3	.ohm.m	:	(HRLT-B)	(2in)	Apparent	Resistivity	from	Computed	Focusing	Mode	3										
RLA4	.ohm.m	:	(HRLT-B)	(2in)	Apparent	Resistivity	from	Computed	Focusing	Mode	4										
RLA5	.ohm.m	:	(HRLT-B)	(2in)	Apparent	Resistivity	from	Computed	Focusing	Mode	5										
ITT	.s	:	(DSLT-H)	(6in)	Integrated	Transit	Time														
GR	.gAPI	:	(HGNS-H)	(6in)	Gamma	Ray															
#-------------------------------------------------------------																					
#	DEPT	RHOZ	CALI	TENS	BS	PEFZ	NPHI	TNPH	HDRA	ICV	IHV	SP	SPHI	DT	RLA1	RLA2	RLA3	RLA4	RLA5	ITT	GR
#	(HDRS-H)	(HDRS-H)	(WLWorkflo)	(Borehole)	(HDRS-H)	(HGNS-H)	(HGNS-H)	(HDRS-H)	(Borehole)	(Borehole)	(SPA-A)	(DSLT-H)	(DSLT-H)	(HRLT-B)	(HRLT-B)	(HRLT-B)	(HRLT-B)	(HRLT-B)	(DSLT-H)	(HGNS-H)	
#	(RT)	(RT)	(RT)																		
#	(2in)	(1in)	(6in)	(6in)	(2in)	(6in)	(6in)	(2in)	(6in)	(6in)	(6in)	(6in)	(6in)	(2in)	(2in)	(2in)	(2in)	(2in)	(6in)	(6in)	
~ASCII																					
# ...
	346.2528	2.12197	12.58753	1670.57144	8.5	2.76944	0.41718	0.39265	0.04047	10.12652	31.46605	6.25893	0.40232	157.17914	13.90692	18.32638	21.15912	22.75836	25.08896	0.38166	94.76109
	346.4052	2.10009	12.63331	1660.74999	8.5	2.79587	0.43727	0.41455	0.04786	10.12472	31.46047	6.67188	0.40186	156.85547	13.34127	17.57155	20.37387	21.82281	24.06654	0.38158	92.75166
	346.5576	2.09764	12.82789	1655.85725	8.5	2.80006	0.45218	0.44252	0.05999	10.12293	31.45489	6.60714	0.40325	157.83839	13.4432	18.01803	21.00881	22.43867	24.74125	0.3815	93.00718
	346.71	2.122	12.83933	1649.12489	8.5	2.79472	0.4341	0.43678	0.06411	10.12113	31.44931	6.69531	0.4015	156.59889	13.6964	18.85925	21.87133	23.43823	25.72238	0.38142	87.20181
	346.8624	2.13258	12.83933	1631.85709	8.5	2.77173	0.4446	0.42002	0.04513	10.11934	31.44374	7.10156	0.39667	153.28675	14.019	19.87455	23.01503	24.86611	27.2094	0.38134	90.99751
	347.0148	2.12477	12.74777	1638.74996	8.5	2.75359	0.44656	0.45895	0.0257	10.11754	31.43816	7.52679	0.39856	154.56804	13.84052	19.82948	23.20823	25.25224	27.56454	0.38127	90.99718
	347.1672	2.074	12.90801	1642.85722	8.5	2.72215	0.4461	0.48585	0.0172	10.11575	31.43258	7.90625	0.40621	159.96864	12.40856	17.18248	20.1001	21.96004	23.94485	0.38119	86.08537
	347.3196	2.0447	13.32006	1653.50013	8.5	2.67444	0.42622	0.50796	0.03168	10.11395	31.427	8.08929	0.41187	164.21932	11.87372	15.93202	18.62536	20.4102	22.17299	0.38111	74.25208
	347.472	2.03621	13.80078	1646.25004	8.5	2.61692	0.43829	0.44912	0.04175	10.11215	31.42142	8.04688	0.41443	166.21527	12.90652	17.9728	21.28267	23.35049	25.44682	0.38103	70.55226
	347.6244	2.0665	13.37729	1645.71432	8.5	2.5864	0.4281	0.44485	0.03908	10.11036	31.41584	7.84375	0.4085	161.65912	13.30984	19.00596	22.48701	24.79734	26.93467	0.38094	71.66846
	347.7768	2.0728	13.11404	1634.74994	8.5	2.6333	0.41222	0.42893	0.02945	10.10856	31.41026	7.71429	0.42148	171.97005	13.76411	20.13283	23.76485	26.11914	28.44724	0.38086	82.38532
	347.9292	2.06185	12.88512	1637.00005	8.5	2.72012	0.43008	0.4103	0.03336	10.10677	31.40468	7.55469	0.42234	172.70654	13.54742	19.27958	22.77916	24.87169	26.89421	0.38078	84.618
	348.0816	2.03525	13.03391	1682.00005	8.5	2.77412	0.44997	0.42302	0.04507	10.10497	31.3991	7.30357	0.42197	172.39125	12.97838	17.66855	20.8461	22.60573	24.3009	0.38069	85.28796
	348.234	2.03104	12.9538	1678.57149	8.5	2.73734	0.49625	0.44009	0.04654	10.10318	31.39352	7.19531	0.4238	173.9593	12.91927	17.56136	20.74059	22.51343	24.08546	0.3806	86.40428
	348.3864	2.03563	12.72488	1639.49992	8.5	2.6711	0.50265	0.49525	0.03272	10.10138	31.38795	7.36607	0.41228	164.53525	13.23323	18.05216	21.0536	22.9849	24.60708	0.38052	88.41348
	348.5388	2.057	12.61042	1673.87501	8.5	2.62132	0.48775	0.51374	0.02066	10.09958	31.38237	7.59375	0.41054	163.19775	12.88514	17.5697	20.34917	22.22889	23.85457	0.38044	88.41338
	348.6912	2.06256	12.61042	1673.57152	8.5	2.6066	0.47697	0.49177	0.02256	10.09779	31.37679	8.3125	0.41564	167.1736	13.20715	18.19672	21.26542	23.1403	24.96254	0.38035	85.06435
	348.8436	2.04629	12.71343	1644.62512	8.5	2.59031	0.44178	0.47243	0.03653	10.09599	31.37121	8.66964	0.4233	173.52883	12.96225	17.52291	20.55462	22.01683	23.81452	0.38027	77.12251
	348.996	2.02316	12.58753	1651.85722	8.5	2.54988	0.4427	0.44712	0.04831	10.0942	31.36563	8.80469	0.42072	171.3325	12.52951	16.94817	19.70756	20.94301	22.71309	0.38018	73.99709
	349.1484	2.01905	12.51885	1685.87509	8.5	2.51913	0.3774	0.40943	0.05109	10.0924	31.36005	8.72321	0.41718	168.41706	13.33381	18.6459	21.4654	22.87473	24.89808	0.3801	72.88072
	349.3008	2.04736	12.72488	1665.42849	8.5	2.523	0.37411	0.35129	0.04544	10.0906	31.35447	8.79688	0.41135	163.81638	14.59878	20.72975	23.62174	25.39005	27.71714	0.38001	79.51483
	349.4532	2.08209	12.81644	1654.75006	8.5	2.58258	0.37298	0.36278	0.04373	10.08881	31.34889	8.69643	0.40348	158.00195	15.03092	20.48151	23.07558	24.94266	27.1144	0.37993	78.39825
	349.6056	2.08484	12.79356	1628.62502	8.5	2.68279	0.39951	0.37412	0.05367	10.08701	31.34331	8.13281	0.40187	156.85868	14.83887	19.29462	21.74347	23.60975	25.62168	0.37985	76.64398
	349.758	2.07694	12.79356	1687.00003	8.5	2.76109	0.4314	0.41175	0.07278	10.08522	31.33773	7.69643	0.40642	160.12211	13.94166	17.22085	19.53039	21.18045	22.99015	0.37977	77.05889
	349.9104	2.07623	12.45018	1696.25002	8.5	2.77282	0.42329	0.4214	0.0803	10.08342	31.33216	7.69531	0.4056	159.52519	13.8098	16.93828	19.17246	20.82205	22.5621	0.37969	83.75675
	350.0628	2.1164	11.94657	1678.00003	8.5	2.71074	0.38773	0.3839	0.06211	10.08163	31.32658	7.51786	0.40225	157.12513	16.95656	21.32511	24.35978	26.58282	28.7646	0.37961	93.70799
	350.2152	2.17134	11.09958	1667.87508	8.5	2.6354	0.32538	0.33091	0.03166	10.07983	31.321	7.41406	0.39658	153.22665	21.17414	27.28226	31.63599	34.75615	37.77498	0.37954	99.066
	350.3676	2.21167	10.52729	1710.85721	8.5	2.58495	0.33595	0.29634	0.01364	10.07803	31.31542	7.66406	0.3969	153.44239	22.07262	29.26012	34.33461	38.04622	41.61623	0.37946	98.39688
	350.52	2.20592	10.41283	1678.625	8.5	2.52101	0.37779	0.33428	0.01018	10.07624	31.30984	8.71429	0.4012	156.38816	19.75934	26.44905	31.33421	34.70058	38.29972	0.37938	93.77176
	350.6724	2.15804	10.13813	1657.85715	8.5	2.43473	0.39251	0.37957	0.007	10.07444	31.30426	9.80469	0.40775	161.10658	17.3458	22.09124	26.03406	28.69757	31.72104	0.3793	83.661
	350.8248	2.10085	9.81765	1633.87498	8.5	2.34303	0.34824	0.39707	-0.00364	10.07265	31.29868	10.6875	0.41796	169.04982	18.2123	23.15194	27.56648	30.60723	33.93091	0.37922	79.19559
	350.9772	2.06072	9.65741	1658.28563	8.5	2.29537	0.35322	0.35586	-0.01071	10.07085	31.2931	11.39286	0.42249	172.83461	18.35409	24.24376	29.07038	32.77818	36.60701	0.37914	74.50722
	351.1296	2.03905	9.63452	1717.75007	8.5	2.27941	0.35826	0.36648	-0.0141	10.06906	31.28752	11.66406	0.42391	174.0526	15.11278	20.73208	24.60369	28.0327	31.37181	0.37905	75.78307
	351.282	2.02408	9.61163	1665.125	8.5	2.28247	0.40206	0.37264	-0.01707	10.06726	31.28194	11.95536	0.42616	176.02182	15.02092	20.83945	24.80294	28.14926	31.47256	0.37897	74.8894
	351.4344	2.02028	9.74898	1634.0002	8.5	2.28667	0.37549	0.41343	-0.01572	10.06546	31.27637	12.08594	0.42712	176.87133	15.4905	21.19732	25.52298	28.50416	31.83581	0.37888	72.88033
	351.5868	2.01329	9.1309	1678.00003	8.5	2.2807	0.38133	0.38295	-0.0123	10.06367	31.27079	12.27679	0.42738	177.10636	15.47096	21.27985	26.17604	28.85197	32.25557	0.37879	70.0735
	351.7392	2.01061	9.03934	1662.42864	8.5	2.25426	0.34905	0.39104	-0.00597	10.06187	31.26521	12.47656	0.42718	176.92488	15.01627	21.7441	26.80652	29.56935	32.99821	0.3787	68.95721
	351.8916	2.00136	9.01644	1645.50007	8.5	2.21408	0.36192	0.36191	-0.01115	10.06008	31.25963	13.05469	0.42646	176.2883	14.41251	21.0063	25.91527	28.74657	31.89913	0.37861	72.08297
	352.044	2.00105	8.97066	1690.28584	8.5	2.18772	0.33568	0.35621	-0.02167	10.05828	31.25405	13.45536	0.42549	175.43407	15.1347	21.83052	27.33727	30.50818	33.49669	0.37852	73.10374
	352.1964	2.00441	8.83331	1708.75007	8.5	2.16506	0.3388	0.32733	-0.02353	10.05649	31.24847	13.65625	0.42463	174.67634	15.48285	22.15893	28.18492	31.60777	34.52772	0.37844	68.41553
	352.3488	1.98907	8.81042	1638.74996	8.5	2.16294	0.31869	0.33589	-0.0117	10.05469	31.24289	13.91964	0.42457	174.62788	15.23692	21.63574	27.549	31.19726	33.97324	0.37835	67.17154
	352.5012	1.96055	8.76464	1678.42851	8.5	2.18793	0.33784	0.3408	0.02582	10.05289	31.23731	14.10938	0.42648	176.30818	15.01588	21.34691	26.94108	30.7379	33.37449	0.37826	65.28968
	352.6536	1.92035	8.83331	1762.75008	8.5	2.2174	0.37492	0.37249	0.05996	10.0511	31.23173	14.03125	0.42725	176.99358	15.43904	21.94206	27.71542	31.73767	34.49966	0.37817	66.50142
	352.806	1.90948	8.86765	1702.00018	8.5	2.2178	0.40167	0.37943	0.07746	10.0493	31.22615	13.97321	0.42851	178.12704	15.44755	21.80471	27.48654	31.3098	34.08421	0.37808	67.52203
	352.9584	1.92391	8.8562	1560.12506	8.5	2.2253	0.38799	0.37586	0.07762	10.04751	31.22058	14.07813	0.42821	177.85208	15.67664	22.38339	27.84784	31.53302	34.38897	0.378	71.54066
	353.1108	1.95433	8.90199	1651.62499	8.5	2.26696	0.41335	0.37219	0.07963	10.04571	31.215	14.11607	0.42777	177.46066	15.87132	22.61417	27.7884	31.40651	34.29078	0.37791	72.30634
