~VERSION	INFORMATION																				
VERS	.	2	:CWLS	Log	ASCII	Standard	-	VERSION	2												
WRAP	.	NO	:One	Line	per	Depth	step														
PROD	.	Schlumberger	Technology	Corp.	:LAS	Producer															
PROG	.	Horizon	LASWriter	7.3.92069.3100	:LAS	Program	name	and	version												
SOURCE.	2-Main[4]/Up	:Run&Pass	Information																		
CREA	.	11/27/2017	:LAS	Creation	date	{MM/DD/YYYY}															
#--------------------------------------------------																					
~WELL	INFORMATION																				
#MNEM	.UNIT	DATA	:DESCRIPTION																		
#----	------	--------------	-----------------------------																		
STRT	.m	289.8648	:START	DEPTH																	
STOP	.m	1205.6364	:STOP	DEPTH																	
STEP	.m	0.1524	:STEP																		
NULL	.	-999.25	:NULL	VALUE																	
COMP	.	:COMPANY																			
WELL	.	H-8	:WELL	NAME																	
FLD	.	:FIELD	NAME																		
RIGN	.	:Rig	Name																		
RIGTYP	.	Land	:Rig	Type																	
SON	.	CYTN-00096	:Service	Order	Number																
SRVC	.	Schlumberger	:SERVICE	COMPANY																	
DATE	.	:LOG	DATE(Composite	Date	for	Composite	LAP)	(MM/DD/YYYY)													
CLAB	.	Prefecture:	:County	Label																	
CNTY	.	:COUNTY																			
SLAB	.	Rig	Name	:State/Province	Label																
STAT	.	:STATE	or	PROVINCE																	
PROV	.	:STATE	or	PROVINCE																	
CTRY	.	:COUNTRY																			
CONT_REGION	.	Asia	:Continent	Region																	
SECT	.	:Section																			
TOWN	.	:Township																			
RANG	.	:Range																			
API	.	:API	NUMBER																		
UWI	.	:UNIQUE	WELL	ID																	
LUL	.	PATW	:Logging	Unit	Location																
LUN	.	OSLC#2147	:Logging	Unit	Number																
LOC	.	:FIELD	LOCATION																		
FL1	.	:Field	Location	Line	1																
FL2	.	:Field	Location	Line	2																
LATI	.deg	:LATITUDE																			
LONG	.deg	:LONGITUDE																			
PDAT	.	GL	:Local	Permanent	Datum																
LMF	.	GL	:Logging	Measured	From																
APD	.m	0	:Elevation	of	Depth	Reference	(LMF)	Above	Permanent	Datum											
EPD	.m	14.09	:Elevation	of	Permanent	Datum	(PDAT)	above	Mean	Sea	Level										
EKB	.m	-999.25	:Elevation	of	Kelly	Bushing	Above	Permanent	Datum												
EDF	.m	20.19	:Elevation	of	Drill	Floor	Above	Permanent	Datum												
EGL	.m	0	:Elevation	of	Ground	Level	Above	Permanent	Datum												
ECF	.m	-999.25	:Elevation	of	Casing	Flange	above	Permanent	Datum												
#--------------------------------------------------																					
~CURVE	INFORMATION																				
#MNEM	.UNIT	API	CODE	:DESCRIPTION																	
#----	------	--------------	-----------------------------																		
DEPT	.m	:	Depth	Index																	
RHOZ	.g/cm3	:	(HDRS-H)	(2in)	Standard	Resolution	Formation	Density													
CALI	.in	:	(HDRS-H)	(1in)	Caliper																
TENS	.lbf	:	(WLWorkflow)	(6in)	Cable	Tension															
BS	.in	:(RT)	(Borehole)	(6in)	Bit	Size															
PEFZ	.	:	(HDRS-H)	(2in)	Standard	Resolution	Formation	Photoelectric	Factor												
NPHI	.m3/m3	:	(HGNS-H)	(6in)	Thermal	Neutron	Porosity	(original	Ratio	Method)	in	Selected	Lithology								
TNPH	.m3/m3	:	(HGNS-H)	(6in)	Thermal	Neutron	Porosity	(Ratio	Method)	in	Selected	Lithology									
HDRA	.g/cm3	:	(HDRS-H)	(2in)	Density	Standoff	Correction														
ICV	.m3	:(RT)	(Borehole)	(6in)	Integrated	Cement	Volume														
IHV	.m3	:(RT)	(Borehole)	(6in)	Integrated	Hole	Volume														
SP	.mV	:	(SPA-A)	(6in)	Spontaneous	Potential															
SPHI	.m3/m3	:	(DSLT-H)	(6in)	Sonic	Porosity															
DT	.us/ft	:	(DSLT-H)	(6in)	Delta-T	(also	called	Slowness	or	Interval	Transit	Time)									
RLA1	.ohm.m	:	(HRLT-B)	(2in)	Apparent	Resistivity	from	Computed	Focusing	Mode	1										
RLA2	.ohm.m	:	(HRLT-B)	(2in)	Apparent	Resistivity	from	Computed	Focusing	Mode	2										
RLA3	.ohm.m	:	(HRLT-B)	(2in)	Apparent	Resistivity	from	Computed	Focusing	Mode	3										
RLA4	.ohm.m	:	(HRLT-B)	(2in)	Apparent	Resistivity	from	Computed	Focusing	Mode	4										
RLA5	.ohm.m	:	(HRLT-B)	(2in)	Apparent	Resistivity	from	Computed	Focusing	Mode	5										
ITT	.s	:	(DSLT-H)	(6in)	Integrated	Transit	Time														
GR	.gAPI	:	(HGNS-H)	(6in)	Gamma	Ray															
#-------------------------------------------------------------																					
#	DEPT	RHOZ	CALI	TENS	BS	PEFZ	NPHI	TNPH	HDRA	ICV	IHV	SP	SPHI	DT	RLA1	RLA2	RLA3	RLA4	RLA5	ITT	GR
#	(HDRS-H)	(HDRS-H)	(WLWorkflo)	(Borehole)	(HDRS-H)	(HGNS-H)	(HGNS-H)	(HDRS-H)	(Borehole)	(Borehole)	(SPA-A)	(DSLT-H)	(DSLT-H)	(HRLT-B)	(HRLT-B)	(HRLT-B)	(HRLT-B)	(HRLT-B)	(DSLT-H)	(HGNS-H)	
#	(RT)	(RT)	(RT)																		
#	(2in)	(1in)	(6in)	(6in)	(2in)	(6in)	(6in)	(2in)	(6in)	(6in)	(6in)	(6in)	(6in)	(2in)	(2in)	(2in)	(2in)	(2in)	(6in)	(6in)	
~ASCII																					
# ...
	942.594	2.30004	9.52006	2600.74947	8.5	2.95316	0.31376	0.33281	0.02573	3.10074	9.63542	5.92188	0.33451	120.48476	8.97424	8.91078	8.86109	8.81844	8.64335	0.10454	120.0218
	942.7464	2.30112	9.54295	2597.14353	8.5	2.90889	0.30531	0.32015	0.02561	3.09894	9.62984	5.71875	0.3324	119.61553	9.00995	8.86479	8.8526	8.77741	8.60515	0.10448	119.3516
	942.8988	2.28921	9.61163	2573.74991	8.5	2.86538	0.30151	0.31532	0.02066	3.09714	9.62427	5.73214	0.33341	120.03213	8.91399	8.89421	8.85504	8.77982	8.63317	0.10442	121.5844
	943.0512	2.26972	9.47428	2562.50047	8.5	2.84634	0.29774	0.32226	0.01202	3.09535	9.61869	5.74219	0.3359	121.06452	8.68014	8.5989	8.54235	8.46122	8.29521	0.10436	121.2335
	943.2036	2.25922	9.54295	2556.14288	8.5	2.85388	0.27685	0.312	0.0069	3.09355	9.61311	5.625	0.3364	121.27334	8.26838	8.20226	8.15532	8.11339	7.95545	0.1043	119.8945
	943.356	2.26517	9.49717	2555.00085	8.5	2.87681	0.27186	0.30069	0.00866	3.09176	9.60753	5.59375	0.33794	121.92384	8.4074	8.25284	8.16105	8.09892	7.91836	0.10424	122.5097
	943.5084	2.26919	9.4285	2569.50103	8.5	2.89197	0.27828	0.29747	0.00779	3.08996	9.60195	5.75	0.33839	122.11885	8.41587	8.25343	8.15498	8.09049	7.93729	0.10418	127.6452
	943.6608	2.26727	9.52006	2574.42884	8.5	2.90277	0.31287	0.30009	0.00648	3.08817	9.59637	6.05469	0.34282	124.03513	8.38798	8.28454	8.17081	8.12295	7.96603	0.10412	126.9751
	943.8132	2.26661	9.54295	2563.75041	8.5	2.91464	0.33151	0.31856	0.00781	3.08637	9.59079	5.35156	0.34477	124.89787	7.62662	7.48502	7.38507	7.31483	7.16215	0.10405	123.6582
	943.9656	2.26258	9.54295	2568.75016	8.5	2.89424	0.32429	0.32694	0.00698	3.08458	9.58521	5.5625	0.34654	125.69083	7.904	7.79744	7.70759	7.62035	7.46112	0.10399	119.6385
	944.118	2.25318	9.49717	2563.14343	8.5	2.86112	0.31426	0.33033	0.00602	3.08278	9.57963	6.46875	0.3478	126.26178	8.33632	8.17944	8.08617	8.00741	7.82855	0.10393	118.0757
	944.2704	2.25739	9.45139	2561.74961	8.5	2.86818	0.31775	0.31859	0.00843	3.08098	9.57405	6.45313	0.34371	124.42875	8.27837	8.16304	8.07954	7.99511	7.82403	0.10387	116.7681
	944.4228	2.26909	9.43994	2576.87476	8.5	2.92766	0.31295	0.32339	0.01752	3.07919	9.56848	6.41964	0.343	124.11322	8.19571	8.01068	7.93382	7.86946	7.69088	0.1038	121.6166
	944.5752	2.29018	9.52006	2579.7141	8.5	2.99947	0.30635	0.31544	0.02758	3.07739	9.5629	6.42188	0.34102	123.24661	8.28968	8.1772	8.09729	8.05695	7.86258	0.10374	126.975
	944.7276	2.30043	9.47428	2590.62407	8.5	3.04109	0.26801	0.31175	0.03824	3.0756	9.55732	6.39063	0.34036	122.96034	8.52344	8.37981	8.31827	8.27646	8.0878	0.10368	130.3237
	944.88	2.305	9.54295	2581.24954	8.5	3.06903	0.2826	0.29271	0.04806	3.0738	9.55174	6.00893	0.33963	122.64929	8.16494	8.01129	8.01212	7.94316	7.74596	0.10362	121.3928
	945.0324	2.30633	9.58874	2582.62537	8.5	3.09468	0.28118	0.30769	0.05517	3.07201	9.54616	5.79688	0.33915	122.44179	8.22875	8.118	8.10119	8.04644	7.86257	0.10356	121.3931
	945.1848	2.30093	9.54295	2595.99926	8.5	3.0968	0.29504	0.2946	0.0501	3.07021	9.54058	5.625	0.33912	122.42694	8.29452	8.25331	8.18495	8.14435	7.93629	0.1035	120.7236
	945.3372	2.2982	9.58874	2600.87536	8.5	3.06893	0.29115	0.30518	0.04027	3.06842	9.535	5.69643	0.33775	121.84551	8.4607	8.37873	8.30408	8.24941	8.04195	0.10343	121.7441
	945.4896	2.29129	9.5544	2593.37573	8.5	3.02014	0.29596	0.30153	0.02802	3.06662	9.52942	5.46875	0.33773	121.83673	8.49489	8.44358	8.37393	8.32486	8.1408	0.10337	120.6275
	945.642	2.28726	9.45139	2594.99886	8.5	2.99599	0.31457	0.3177	0.02306	3.06483	9.52384	4.41406	0.33931	122.50961	8.2555	8.14534	8.058	7.99838	7.80925	0.10331	123.9761
	945.7944	2.28711	9.58874	2591.75037	8.5	3.01496	0.31755	0.337	0.02364	3.06303	9.51826	3.03906	0.3425	123.89175	7.86023	7.74167	7.66761	7.61074	7.42932	0.10325	128.5692
	945.9468	2.28509	9.81765	2580.24914	8.5	3.06661	0.32673	0.33316	0.02773	3.06123	9.51269	2.83594	0.34488	124.94706	7.61581	7.45868	7.40171	7.35162	7.17033	0.10319	131.6949
	946.0992	2.27466	9.49717	2577.28616	8.5	3.11135	0.27915	0.33488	0.02598	3.05944	9.50711	3.80357	0.34591	125.40673	7.80855	7.64847	7.57695	7.51325	7.34973	0.10313	125.667
	946.2516	2.26465	9.47428	2563.50087	8.5	3.10645	0.33368	0.29515	0.02391	3.05764	9.50153	4.21875	0.34498	124.99238	7.9757	7.81352	7.7535	7.68846	7.53121	0.10306	122.1267
	946.404	2.26351	9.49717	2564.12584	8.5	3.03064	0.31541	0.32941	0.01973	3.05585	9.49595	4.83594	0.34145	123.434	8.17275	8.06009	7.96992	7.90795	7.73661	0.103	119.4157
	946.5564	2.26461	9.47428	2572.14253	8.5	2.92997	0.32359	0.30786	0.01644	3.05405	9.49037	5.92857	0.33941	122.55328	8.51026	8.4285	8.35547	8.2758	8.09811	0.10294	122.0948
	946.7088	2.26806	9.4285	2567.62612	8.5	2.8663	0.24345	0.31412	0.01311	3.05226	9.48479	5.67969	0.33829	122.07584	8.48244	8.41227	8.33944	8.25016	8.07862	0.10288	124.3275
	946.8612	2.2729	9.45139	2571.49958	8.5	2.87773	0.26545	0.25774	0.01557	3.05046	9.47921	5.5	0.33519	120.76743	8.45974	8.33312	8.29117	8.20532	8.00266	0.10282	122.1265
	947.0136	2.28663	9.4285	2578.7137	8.5	2.93253	0.30234	0.2745	0.02484	3.04867	9.47363	5.76563	0.33464	120.53923	8.79161	8.64107	8.60037	8.50842	8.32068	0.10276	126.6237
	947.166	2.29543	9.49717	2565.87486	8.5	2.98025	0.31814	0.31078	0.03254	3.04687	9.46805	5.35714	0.33609	121.14529	8.41301	8.25534	8.19823	8.13144	7.94537	0.1027	128.1867
	947.3184	2.29216	9.49717	2569.57072	8.5	2.98412	0.31042	0.33707	0.03173	3.04508	9.46247	5.07813	0.33384	120.20955	8.14561	8.01393	7.94966	7.89587	7.71395	0.10264	134.2147
	947.4708	2.28707	9.4056	2560.0006	8.5	2.94706	0.29394	0.32359	0.02715	3.04328	9.4569	5.47656	0.33684	121.4621	8.36882	8.23609	8.14402	8.09135	7.90781	0.10258	122.35
	947.6232	2.27641	9.4056	2564.49903	8.5	2.89391	0.2863	0.30436	0.018	3.04148	9.45132	5.42857	0.33686	121.46691	8.13133	7.95414	7.86888	7.79751	7.6191	0.10252	119.894
	947.7756	2.26827	9.4056	2568.50063	8.5	2.84793	0.28193	0.29729	0.01076	3.03969	9.44574	5.78906	0.33598	121.09692	8.40801	8.20303	8.11529	8.05255	7.87502	0.10246	112.2388
	947.928	2.25988	9.4056	2559.14183	8.5	2.83124	0.27176	0.29993	0.00528	3.03789	9.44016	5.75781	0.33633	121.24651	8.14148	8.00359	7.91016	7.81708	7.6494	0.10239	116.2577
	948.0804	2.25456	9.41705	2570.24964	8.5	2.82801	0.31061	0.28754	0.00411	3.0361	9.43458	5.66964	0.3348	120.60656	8.60022	8.44793	8.33414	8.23676	8.05919	0.10233	116.9274
	948.2328	2.25339	9.33693	2576.57127	8.5	2.81923	0.34181	0.31302	0.00531	3.0343	9.429	6.04688	0.33563	120.95299	8.54995	8.33416	8.22798	8.12182	7.94514	0.10227	117.1829
	948.3852	2.25006	9.33693	2563.37498	8.5	2.78693	0.33624	0.34066	0.00613	3.03251	9.42342	5.95313	0.33632	121.23987	8.37771	8.16469	8.04503	7.96591	7.7773	0.10221	116.2901
	948.5376	2.25213	9.32548	2566.12439	8.5	2.72656	0.30089	0.33485	0.00587	3.03071	9.41784	6.17857	0.33941	122.55289	8.52849	8.31539	8.18612	8.09159	7.90594	0.10215	110.9313
	948.69	2.25315	9.2797	2569.75056	8.5	2.68613	0.27933	0.3104	0.00814	3.02892	9.41226	5.97656	0.34043	122.99466	8.24723	8.02732	7.90136	7.81143	7.61979	0.10209	115.0142
	948.8424	2.24948	9.33693	2566.9989	8.5	2.64524	0.27257	0.29509	0.00736	3.02712	9.40668	5.96875	0.34249	123.88956	8.47049	8.2104	8.07983	7.99199	7.77713	0.10203	114.7905
	948.9948	2.23906	9.31404	2584.12485	8.5	2.64502	0.29772	0.28916	0.00745	3.02532	9.40111	5.50781	0.34335	124.26574	8.1751	7.92735	7.81122	7.72025	7.50824	0.10197	113.0049
	949.1472	2.22369	9.29115	2577.37608	8.5	2.63067	0.30369	0.30665	0.00364	3.02353	9.39553	5.30357	0.34346	124.31512	8.06103	7.82021	7.6803	7.59089	7.38847	0.10191	108.412
	949.2996	2.21633	9.31404	2573.71394	8.5	2.63065	0.34194	0.31584	0.00357	3.02173	9.38995	5.04688	0.34376	124.45078	8.11972	7.84586	7.71875	7.62244	7.39424	0.10184	105.9562
	949.452	2.21339	9.31404	2582.24994	8.5	2.60796	0.32523	0.35607	0.0039	3.01994	9.38437	5.07813	0.34362	124.38821	8.54669	8.29858	8.15985	8.06521	7.82945	0.10178	98.81145
	949.6044	2.2218	9.26825	2560.49967	8.5	2.62788	0.29282	0.32909	0.00541	3.01814	9.37879	5.02679	0.34479	124.9067	8.34477	8.08581	7.9651	7.83623	7.6012	0.10172	93.995
	949.7568	2.23148	9.26825	2567.28666	8.5	2.67016	0.26924	0.31132	0.00564	3.01635	9.37321	4.97656	0.34407	124.58606	8.10116	7.8409	7.69251	7.58636	7.36267	0.10166	91.12424
