~VERSION	INFORMATION																				
VERS	.	2	:CWLS	Log	ASCII	Standard	-	VERSION	2												
WRAP	.	NO	:One	Line	per	Depth	step														
PROD	.	Schlumberger	Technology	Corp.	:LAS	Producer															
PROG	.	Horizon	LASWriter	7.3.92069.3100	:LAS	Program	name	and	version												
SOURCE.	2-Main[4]/Up	:Run&Pass	Information																		
CREA	.	11/27/2017	:LAS	Creation	date	{MM/DD/YYYY}															
#--------------------------------------------------																					
~WELL	INFORMATION																				
#MNEM	.UNIT	DATA	:DESCRIPTION																		
#----	------	--------------	-----------------------------																		
STRT	.m	289.8648	:START	DEPTH																	
STOP	.m	1205.6364	:STOP	DEPTH																	
STEP	.m	0.1524	:STEP																		
NULL	.	-999.25	:NULL	VALUE																	
COMP	.	:COMPANY																			
WELL	.	H-8	:WELL	NAME																	
FLD	.	:FIELD	NAME																		
RIGN	.	:Rig	Name																		
RIGTYP	.	Land	:Rig	Type																	
SON	.	CYTN-00096	:Service	Order	Number																
SRVC	.	Schlumberger	:SERVICE	COMPANY																	
DATE	.	:LOG	DATE(Composite	Date	for	Composite	LAP)	(MM/DD/YYYY)													
CLAB	.	Prefecture:	:County	Label																	
CNTY	.	:COUNTY																			
SLAB	.	Rig	Name	:State/Province	Label																
STAT	.	:STATE	or	PROVINCE																	
PROV	.	:STATE	or	PROVINCE																	
CTRY	.	:COUNTRY																			
CONT_REGION	.	Asia	:Continent	Region																	
SECT	.	:Section																			
TOWN	.	:Township																			
RANG	.	:Range																			
API	.	:API	NUMBER																		
UWI	.	:UNIQUE	WELL	ID																	
LUL	.	PATW	:Logging	Unit	Location																
LUN	.	OSLC#2147	:Logging	Unit	Number																
LOC	.	:FIELD	LOCATION																		
FL1	.	:Field	Location	Line	1																
FL2	.	:Field	Location	Line	2																
LATI	.deg	:LATITUDE																			
LONG	.deg	:LONGITUDE																			
PDAT	.	GL	:Local	Permanent	Datum																
LMF	.	GL	:Logging	Measured	From																
APD	.m	0	:Elevation	of	Depth	Reference	(LMF)	Above	Permanent	Datum											
EPD	.m	14.09	:Elevation	of	Permanent	Datum	(PDAT)	above	Mean	Sea	Level										
EKB	.m	-999.25	:Elevation	of	Kelly	Bushing	Above	Permanent	Datum												
EDF	.m	20.19	:Elevation	of	Drill	Floor	Above	Permanent	Datum												
EGL	.m	0	:Elevation	of	Ground	Level	Above	Permanent	Datum												
ECF	.m	-999.25	:Elevation	of	Casing	Flange	above	Permanent	Datum												
#--------------------------------------------------																					
~CURVE	INFORMATION																				
#MNEM	.UNIT	API	CODE	:DESCRIPTION																	
#----	------	--------------	-----------------------------																		
DEPT	.m	:	Depth	Index																	
RHOZ	.g/cm3	:	(HDRS-H)	(2in)	Standard	Resolution	Formation	Density													
CALI	.in	:	(HDRS-H)	(1in)	Caliper																
TENS	.lbf	:	(WLWorkflow)	(6in)	Cable	Tension															
BS	.in	:(RT)	(Borehole)	(6in)	Bit	Size															
PEFZ	.	:	(HDRS-H)	(2in)	Standard	Resolution	Formation	Photoelectric	Factor												
NPHI	.m3/m3	:	(HGNS-H)	(6in)	Thermal	Neutron	Porosity	(original	Ratio	Method)	in	Selected	Lithology								
TNPH	.m3/m3	:	(HGNS-H)	(6in)	Thermal	Neutron	Porosity	(Ratio	Method)	in	Selected	Lithology									
HDRA	.g/cm3	:	(HDRS-H)	(2in)	Density	Standoff	Correction														
ICV	.m3	:(RT)	(Borehole)	(6in)	Integrated	Cement	Volume														
IHV	.m3	:(RT)	(Borehole)	(6in)	Integrated	Hole	Volume														
SP	.mV	:	(SPA-A)	(6in)	Spontaneous	Potential															
SPHI	.m3/m3	:	(DSLT-H)	(6in)	Sonic	Porosity															
DT	.us/ft	:	(DSLT-H)	(6in)	Delta-T	(also	called	Slowness	or	Interval	Transit	Time)									
RLA1	.ohm.m	:	(HRLT-B)	(2in)	Apparent	Resistivity	from	Computed	Focusing	Mode	1										
RLA2	.ohm.m	:	(HRLT-B)	(2in)	Apparent	Resistivity	from	Computed	Focusing	Mode	2										
RLA3	.ohm.m	:	(HRLT-B)	(2in)	Apparent	Resistivity	from	Computed	Focusing	Mode	3										
RLA4	.ohm.m	:	(HRLT-B)	(2in)	Apparent	Resistivity	from	Computed	Focusing	Mode	4										
RLA5	.ohm.m	:	(HRLT-B)	(2in)	Apparent	Resistivity	from	Computed	Focusing	Mode	5										
ITT	.s	:	(DSLT-H)	(6in)	Integrated	Transit	Time														
GR	.gAPI	:	(HGNS-H)	(6in)	Gamma	Ray															
#-------------------------------------------------------------																					
#	DEPT	RHOZ	CALI	TENS	BS	PEFZ	NPHI	TNPH	HDRA	ICV	IHV	SP	SPHI	DT	RLA1	RLA2	RLA3	RLA4	RLA5	ITT	GR
#	(HDRS-H)	(HDRS-H)	(WLWorkflo)	(Borehole)	(HDRS-H)	(HGNS-H)	(HGNS-H)	(HDRS-H)	(Borehole)	(Borehole)	(SPA-A)	(DSLT-H)	(DSLT-H)	(HRLT-B)	(HRLT-B)	(HRLT-B)	(HRLT-B)	(HRLT-B)	(DSLT-H)	(HGNS-H)	
#	(RT)	(RT)	(RT)																		
#	(2in)	(1in)	(6in)	(6in)	(2in)	(6in)	(6in)	(2in)	(6in)	(6in)	(6in)	(6in)	(6in)	(2in)	(2in)	(2in)	(2in)	(2in)	(6in)	(6in)	
~ASCII																					
# ...
	409.194	2.11648	9.63452	1702.85715	8.5	2.88837	0.35953	0.36008	-0.00995	9.38487	29.16191	0.92188	0.40634	160.06319	15.33364	17.15416	18.28352	19.10032	19.99922	0.34883	113.0365
	409.3464	2.11884	9.61163	1699.1251	8.5	2.90011	0.38852	0.37497	-0.00609	9.38307	29.15633	0.82031	0.40734	160.80407	14.98667	16.72739	17.70504	18.64443	19.50866	0.34875	116.7682
	409.4988	2.12796	9.61163	1701.125	8.5	2.89892	0.41982	0.40533	-0.00319	9.38128	29.15075	0.86607	0.40856	161.70405	15.02347	16.74824	17.90145	18.64	19.46966	0.34867	115.1098
	409.6512	2.12836	9.61163	1707.62513	8.5	2.92189	0.42264	0.40875	-0.00291	9.37948	29.14518	1.35156	0.4082	161.43823	14.72417	16.56063	17.56653	18.33439	19.21538	0.34859	113.7699
	409.8036	2.13095	9.58874	1703.14289	8.5	2.92036	0.441	0.4037	-0.00454	9.37769	29.1396	2.07031	0.40638	160.09559	15.12337	17.10436	18.38367	18.91806	19.85784	0.34851	113.3232
	409.956	2.13208	9.58874	1701.00001	8.5	2.89525	0.43673	0.42363	-0.00758	9.37589	29.13402	2.41406	0.4033	157.86951	16.19837	18.40531	19.67195	20.38612	21.22631	0.34843	118.3312
	410.1084	2.14307	9.58874	1711.71418	8.5	2.83653	0.41965	0.41796	-0.00786	9.37409	29.12844	2.83036	0.40152	156.61218	17.31173	19.87227	20.99563	22.00594	22.93112	0.34835	115.7161
	410.2608	2.1424	9.56584	1718.12505	8.5	2.83379	0.39018	0.41506	-0.00762	9.3723	29.12286	2.69531	0.40161	156.67558	16.45774	18.60349	20.06959	20.78916	21.66626	0.34827	116.1624
	410.4132	2.13197	9.57729	1719.74997	8.5	2.87216	0.38666	0.41446	-0.00611	9.3705	29.11728	2.64063	0.40421	158.51813	15.59618	17.59117	18.80723	19.80009	20.51084	0.34819	112.3664
	410.5656	2.11304	9.58874	1713.37507	8.5	2.92829	0.40451	0.41231	-0.00409	9.36871	29.1117	2.36607	0.40886	161.92936	15.57222	17.54953	18.98547	19.86209	20.62322	0.34812	120.7871
	410.718	2.10075	9.58874	1709.71428	8.5	2.93886	0.45522	0.42303	-0.0015	9.36691	29.10612	1.98438	0.41349	165.47543	15.09471	17.06227	18.52604	19.30705	20.05028	0.34803	124.9655
	410.8704	2.09524	9.58874	1728.00001	8.5	2.90083	0.45582	0.45694	-0.001	9.36511	29.10054	2.39063	0.41386	165.76386	15.03402	17.02327	18.39605	19.25279	19.98464	0.34795	122.2864
	411.0228	2.09428	9.61163	1721.00013	8.5	2.80356	0.46567	0.44576	-0.00475	9.36332	29.09496	3.5625	0.41149	163.92443	16.31619	18.77128	20.26947	21.08252	21.86801	0.34787	117.3742
	411.1752	2.0965	9.58874	1707.71438	8.5	2.70263	0.43311	0.43696	-0.01076	9.36152	29.08939	4.35156	0.40859	161.73148	15.3541	17.423	18.63783	19.34076	19.99369	0.34779	108.4437
	411.3276	2.10695	9.58874	1734.25015	8.5	2.63157	0.42941	0.41516	-0.01271	9.35973	29.08381	4.32143	0.40473	158.89248	15.21329	17.4444	18.71854	19.35139	19.96767	0.34771	104.648
	411.48	2.10766	9.61163	1746.00001	8.5	2.6827	0.4447	0.43512	-0.01046	9.35793	29.07823	3.83594	0.40293	157.60455	15.90763	18.41581	19.68355	20.45946	21.10357	0.34763	105.7644
	411.6324	2.11006	9.66885	1700.87501	8.5	2.75042	0.46001	0.46896	-0.00431	9.35614	29.07265	2.79688	0.40511	159.17299	15.51438	18.00694	19.3392	20.12616	20.77033	0.34755	109.624
	411.7848	2.10489	9.86343	1703.42862	8.5	2.83286	0.46005	0.48645	-0.00269	9.35434	29.06707	1.57031	0.40261	157.37949	15.00831	17.35263	18.73244	19.45309	20.16871	0.34747	113.4194
	411.9372	2.12813	9.97789	1730.62511	8.5	2.82553	0.44296	0.46202	-0.00172	9.35254	29.06149	-0.08594	0.39944	155.1667	16.7626	19.40055	20.8245	21.66693	22.51229	0.34739	112.1118
	412.0896	2.16374	10.11524	1728.74997	8.5	2.83298	0.40581	0.43062	-0.00072	9.35075	29.05591	-2.14286	0.39695	153.47442	17.31468	20.05056	21.63722	22.61547	23.48546	0.34731	112.7811
	412.242	2.19305	10.24115	1707.37514	8.5	2.85941	0.42881	0.40058	0.00133	9.34895	29.05033	-4.23438	0.39257	150.5812	17.37966	20.24631	21.72829	22.82602	23.764	0.34724	116.3536
	412.3944	2.20746	10.32126	1714.71425	8.5	2.89687	0.39996	0.42285	0.00351	9.34716	29.04475	-5.61719	0.39243	150.49195	17.61939	20.55153	22.10782	23.12132	24.11032	0.34716	121.4568
	412.5468	2.20405	10.36705	1724.99994	8.5	2.92306	0.39244	0.39618	0.00341	9.34536	29.03918	-6.46429	0.39295	150.83223	17.81161	20.47215	22.12244	23.10325	24.1636	0.34708	121.9035
	412.6992	2.21222	10.38994	1714.00003	8.5	2.90079	0.35055	0.39505	0.0049	9.34357	29.0336	-6.89063	0.39262	150.61299	17.91723	20.52236	22.06206	23.1293	24.30133	0.34701	121.68
	412.8516	2.21108	10.38994	1711.71418	8.5	2.86114	0.37947	0.35999	0.00406	9.34177	29.02802	-7.26563	0.39175	150.05091	18.02288	20.73878	22.23821	23.24413	24.49061	0.34693	120.9149
	413.004	2.20781	10.37849	1714.00003	8.5	2.84209	0.35192	0.37741	0.0027	9.33997	29.02244	-7.67188	0.39108	149.62105	18.456	21.43231	23.04652	23.91692	25.27419	0.34686	125.3799
	413.1564	2.19667	10.36705	1716.87512	8.5	2.85151	0.36242	0.35918	-0.0001	9.33818	29.01686	-7.76786	0.38988	148.85731	18.93312	22.1362	23.77979	24.70424	26.0971	0.34678	120.245
	413.3088	2.20401	10.36705	1720.50016	8.5	2.88643	0.36417	0.37246	-0.00215	9.33638	29.01128	-7.72656	0.38903	148.32348	19.332	22.78453	24.49872	25.35353	26.81894	0.34671	123.2427
	413.4612	2.21517	10.36705	1711.99991	8.5	2.91742	0.36515	0.37169	-0.00413	9.33459	29.0057	-7.45313	0.38936	148.53279	19.16805	22.60795	24.42907	25.33558	26.79601	0.34664	121.0104
	413.6136	2.22274	10.36705	1713.00008	8.5	2.96345	0.36784	0.36986	-0.0001	9.33279	29.00012	-7.49219	0.38975	148.77529	18.92917	22.25959	24.01161	24.99076	26.41434	0.34656	125.0296
	413.766	2.21846	10.36705	1717.2501	8.5	2.99919	0.36959	0.36571	0.00489	9.331	28.99454	-7.6875	0.39055	149.28641	18.79537	21.94674	23.71485	24.8203	26.2787	0.34649	119.0012
	413.9184	2.21451	10.36705	1724.14296	8.5	3.00103	0.41633	0.37559	0.00935	9.3292	28.98896	-7.4375	0.39086	149.48361	18.90569	22.04152	23.87464	24.97794	26.33198	0.34641	124.1365
	414.0708	2.21058	10.32126	1708.62508	8.5	2.97111	0.39754	0.41803	0.00538	9.3274	28.98339	-7.14844	0.39072	149.39507	19.06273	22.31174	24.25792	25.50329	26.81464	0.34634	124.3594
	414.2232	2.21356	10.29837	1702.87514	8.5	2.92546	0.40264	0.38936	0.00171	9.32561	28.97781	-6.78125	0.39035	149.15583	18.8926	22.32393	24.11065	25.41359	26.76844	0.34626	125.3484
	414.3756	2.20886	10.20681	1715.57145	8.5	2.91783	0.38612	0.40168	-0.0022	9.32381	28.97223	-6.03906	0.38988	148.8578	19.1691	22.67362	24.75842	25.83224	27.18803	0.34619	124.9018
	414.528	2.21021	10.16102	1718.25005	8.5	2.90672	0.4139	0.3853	-0.00189	9.32202	28.96665	-5.22656	0.39056	149.29394	18.86033	22.22278	24.31415	25.34813	26.67436	0.34611	126.6881
	414.6804	2.20372	10.13813	1719.125	8.5	2.92649	0.4044	0.4058	0.00007	9.32022	28.96107	-4.25893	0.39113	149.65467	18.62471	21.78894	23.57681	24.64682	25.93379	0.34604	121.4571
	414.8328	2.19595	10.09235	1707.87511	8.5	2.94011	0.38357	0.41014	0.00338	9.31842	28.95549	-2.24219	0.39413	151.602	16.92158	19.65438	21.06707	21.95932	23.03151	0.34596	118.2356
	414.9852	2.1767	10.04657	1714.00003	8.5	2.90589	0.39876	0.40198	0.00277	9.31663	28.94991	0.55469	0.39638	153.09019	15.05118	17.33456	18.48946	19.1897	20.13121	0.34589	118.6824
	415.1376	2.15166	9.88633	1724.74995	8.5	2.84166	0.37664	0.41209	-0.00104	9.31483	28.94433	3.21875	0.39725	153.67419	16.45727	18.68612	19.92899	20.7226	21.7316	0.34581	116.896
	415.29	2.13328	9.4285	1716.37492	8.5	2.74973	0.40845	0.38125	-0.00486	9.31304	28.93875	4.86607	0.39874	154.68783	16.72902	18.85245	20.08455	20.84358	21.8011	0.34574	107.6147
	415.4424	2.12136	9.26825	1703.8571	8.5	2.72974	0.39853	0.41687	-0.00779	9.31124	28.93317	5.50781	0.40155	156.63453	16.32647	18.50573	19.70872	20.48248	21.33636	0.34566	108.7305
	415.5948	2.11887	9.29115	1717.50008	8.5	2.76022	0.36719	0.41587	-0.00864	9.30945	28.9276	5.48438	0.40243	157.25077	15.06886	17.21598	18.41654	19.17871	19.94684	0.34558	113.1964
	415.7472	2.11917	9.26825	1709.50003	8.5	2.81976	0.34913	0.37537	-0.00856	9.30765	28.92202	5.38393	0.40316	157.76963	16.67806	19.10173	20.50247	21.34626	22.28068	0.3455	117.885
	415.8996	2.12159	9.24536	1713.50006	8.5	2.84666	0.33342	0.3379	-0.00662	9.30585	28.91644	6.13281	0.40359	158.07922	17.40902	19.79522	21.40338	22.32639	23.20035	0.34542	109.4011
	416.052	2.11313	9.19958	1718.14281	8.5	2.83569	0.38087	0.33558	-0.00609	9.30406	28.91086	7.14063	0.40076	156.0854	17.15312	19.39066	20.97529	21.88764	22.71042	0.34534	105.6051
