~VERSION	INFORMATION																				
VERS	.	2	:CWLS	Log	ASCII	Standard	-	VERSION	2												
WRAP	.	NO	:One	Line	per	Depth	step														
PROD	.	Schlumberger	Technology	Corp.	:LAS	Producer															
PROG	.	Horizon	LASWriter	7.3.92069.3100	:LAS	Program	name	and	version												
SOURCE.	2-Main[4]/Up	:Run&Pass	Information																		
CREA	.	11/27/2017	:LAS	Creation	date	{MM/DD/YYYY}															
#--------------------------------------------------																					
~WELL	INFORMATION																				
#MNEM	.UNIT	DATA	:DESCRIPTION																		
#----	------	--------------	-----------------------------																		
STRT	.m	289.8648	:START	DEPTH																	
STOP	.m	1205.6364	:STOP	DEPTH																	
STEP	.m	0.1524	:STEP																		
NULL	.	-999.25	:NULL	VALUE																	
COMP	.	:COMPANY																			
WELL	.	H-8	:WELL	NAME																	
FLD	.	:FIELD	NAME																		
RIGN	.	:Rig	Name																		
RIGTYP	.	Land	:Rig	Type																	
SON	.	CYTN-00096	:Service	Order	Number																
SRVC	.	Schlumberger	:SERVICE	COMPANY																	
DATE	.	:LOG	DATE(Composite	Date	for	Composite	LAP)	(MM/DD/YYYY)													
CLAB	.	Prefecture:	:County	Label																	
CNTY	.	:COUNTY																			
SLAB	.	Rig	Name	:State/Province	Label																
STAT	.	:STATE	or	PROVINCE																	
PROV	.	:STATE	or	PROVINCE																	
CTRY	.	:COUNTRY																			
CONT_REGION	.	Asia	:Continent	Region																	
SECT	.	:Section																			
TOWN	.	:Township																			
RANG	.	:Range																			
API	.	:API	NUMBER																		
UWI	.	:UNIQUE	WELL	ID																	
LUL	.	PATW	:Logging	Unit	Location																
LUN	.	OSLC#2147	:Logging	Unit	Number																
LOC	.	:FIELD	LOCATION																		
FL1	.	:Field	Location	Line	1																
FL2	.	:Field	Location	Line	2																
LATI	.deg	:LATITUDE																			
LONG	.deg	:LONGITUDE																			
PDAT	.	GL	:Local	Permanent	Datum																
LMF	.	GL	:Logging	Measured	From																
APD	.m	0	:Elevation	of	Depth	Reference	(LMF)	Above	Permanent	Datum											
EPD	.m	14.09	:Elevation	of	Permanent	Datum	(PDAT)	above	Mean	Sea	Level										
EKB	.m	-999.25	:Elevation	of	Kelly	Bushing	Above	Permanent	Datum												
EDF	.m	20.19	:Elevation	of	Drill	Floor	Above	Permanent	Datum												
EGL	.m	0	:Elevation	of	Ground	Level	Above	Permanent	Datum												
ECF	.m	-999.25	:Elevation	of	Casing	Flange	above	Permanent	Datum												
#--------------------------------------------------																					
~CURVE	INFORMATION																				
#MNEM	.UNIT	API	CODE	:DESCRIPTION																	
#----	------	--------------	-----------------------------																		
DEPT	.m	:	Depth	Index																	
RHOZ	.g/cm3	:	(HDRS-H)	(2in)	Standard	Resolution	Formation	Density													
CALI	.in	:	(HDRS-H)	(1in)	Caliper																
TENS	.lbf	:	(WLWorkflow)	(6in)	Cable	Tension															
BS	.in	:(RT)	(Borehole)	(6in)	Bit	Size															
PEFZ	.	:	(HDRS-H)	(2in)	Standard	Resolution	Formation	Photoelectric	Factor												
NPHI	.m3/m3	:	(HGNS-H)	(6in)	Thermal	Neutron	Porosity	(original	Ratio	Method)	in	Selected	Lithology								
TNPH	.m3/m3	:	(HGNS-H)	(6in)	Thermal	Neutron	Porosity	(Ratio	Method)	in	Selected	Lithology									
HDRA	.g/cm3	:	(HDRS-H)	(2in)	Density	Standoff	Correction														
ICV	.m3	:(RT)	(Borehole)	(6in)	Integrated	Cement	Volume														
IHV	.m3	:(RT)	(Borehole)	(6in)	Integrated	Hole	Volume														
SP	.mV	:	(SPA-A)	(6in)	Spontaneous	Potential															
SPHI	.m3/m3	:	(DSLT-H)	(6in)	Sonic	Porosity															
DT	.us/ft	:	(DSLT-H)	(6in)	Delta-T	(also	called	Slowness	or	Interval	Transit	Time)									
RLA1	.ohm.m	:	(HRLT-B)	(2in)	Apparent	Resistivity	from	Computed	Focusing	Mode	1										
RLA2	.ohm.m	:	(HRLT-B)	(2in)	Apparent	Resistivity	from	Computed	Focusing	Mode	2										
RLA3	.ohm.m	:	(HRLT-B)	(2in)	Apparent	Resistivity	from	Computed	Focusing	Mode	3										
RLA4	.ohm.m	:	(HRLT-B)	(2in)	Apparent	Resistivity	from	Computed	Focusing	Mode	4										
RLA5	.ohm.m	:	(HRLT-B)	(2in)	Apparent	Resistivity	from	Computed	Focusing	Mode	5										
ITT	.s	:	(DSLT-H)	(6in)	Integrated	Transit	Time														
GR	.gAPI	:	(HGNS-H)	(6in)	Gamma	Ray															
#-------------------------------------------------------------																					
#	DEPT	RHOZ	CALI	TENS	BS	PEFZ	NPHI	TNPH	HDRA	ICV	IHV	SP	SPHI	DT	RLA1	RLA2	RLA3	RLA4	RLA5	ITT	GR
#	(HDRS-H)	(HDRS-H)	(WLWorkflo)	(Borehole)	(HDRS-H)	(HGNS-H)	(HGNS-H)	(HDRS-H)	(Borehole)	(Borehole)	(SPA-A)	(DSLT-H)	(DSLT-H)	(HRLT-B)	(HRLT-B)	(HRLT-B)	(HRLT-B)	(HRLT-B)	(DSLT-H)	(HGNS-H)	
#	(RT)	(RT)	(RT)																		
#	(2in)	(1in)	(6in)	(6in)	(2in)	(6in)	(6in)	(2in)	(6in)	(6in)	(6in)	(6in)	(6in)	(2in)	(2in)	(2in)	(2in)	(2in)	(6in)	(6in)	
~ASCII																					
# ...
	822.6552	2.17694	9.07367	2417.12552	8.5	2.59807	0.29436	0.33962	-0.0053	4.51369	14.02609	7.625	0.35814	131.15328	16.33972	18.41151	19.46962	20.01799	20.45636	0.15449	100.3421
	822.8076	2.17717	9.01644	2404.62615	8.5	2.57591	0.28801	0.30691	-0.00534	4.5119	14.02051	7.86719	0.35797	131.07107	16.43098	18.53772	19.58222	20.16891	20.58648	0.15443	94.5373
	822.96	2.16577	9.01644	2411.42886	8.5	2.59202	0.31063	0.30451	-0.00577	4.5101	14.01493	7.45313	0.35772	130.94784	16.20682	18.22648	19.27356	19.87054	20.29154	0.15436	100.789
	823.1124	2.16314	9.10801	2423.12567	8.5	2.60138	0.34469	0.30932	-0.00571	4.50831	14.00935	7.13281	0.35734	130.76078	16.16191	18.28531	19.31629	19.99391	20.43828	0.15429	97.12104
	823.2648	2.16441	9.08512	2419.28594	8.5	2.61144	0.34764	0.34087	-0.0052	4.50651	14.00378	7.35714	0.35677	130.48278	16.47438	18.54527	19.63605	20.277	20.78982	0.15423	103.8825
	823.4172	2.17329	9.06223	2410.99948	8.5	2.59556	0.32852	0.34176	-0.00462	4.50471	13.9982	7.39844	0.35646	130.33208	16.40041	18.43178	19.46258	20.08395	20.62171	0.15416	96.73812
	823.5696	2.16616	9.06223	2413.87479	8.5	2.60392	0.30516	0.33238	-0.0064	4.50292	13.99262	7.42969	0.35588	130.05536	16.41252	18.46837	19.44007	20.0313	20.63895	0.1541	101.8731
	823.722	2.16404	9.03934	2417.6246	8.5	2.60167	0.3045	0.32025	-0.0047	4.50112	13.98704	7.40625	0.3558	130.01576	16.86991	18.87647	19.84147	20.44859	21.05283	0.15403	95.78109
	823.8744	2.16397	9.06223	2425.00058	8.5	2.60685	0.30329	0.31363	-0.00205	4.49933	13.98146	7.46094	0.35634	130.27478	17.09202	19.20334	20.20737	20.81821	21.48495	0.15397	96.41934
	824.0268	2.16443	9.05078	2424.49926	8.5	2.59992	0.25873	0.31419	0.00252	4.49753	13.97588	7.73214	0.35624	130.22799	16.63353	18.61074	19.58187	20.15694	20.7723	0.1539	87.48876
	824.1792	2.15975	8.97066	2425.37601	8.5	2.57556	0.2731	0.28507	-0.00026	4.49574	13.9703	7.96875	0.35774	130.95845	16.81341	18.84713	19.84135	20.4535	21.08985	0.15384	83.69301
	824.3316	2.14976	8.94777	2420.00083	8.5	2.52413	0.30289	0.29814	-0.00529	4.49394	13.96472	8.55469	0.35879	131.47496	17.04588	19.09014	20.10967	20.7407	21.36441	0.15377	77.91975
	824.484	2.13775	8.94777	2411.24902	8.5	2.47472	0.32242	0.30714	-0.01127	4.49215	13.95914	8.75	0.35867	131.41519	16.63183	18.64343	19.68725	20.28255	20.86397	0.15371	79.03605
	824.6364	2.12893	9.02789	2409.6259	8.5	2.45012	0.3269	0.31547	-0.01026	4.49035	13.95356	8.71875	0.35926	131.70573	16.95305	19.05123	20.16329	20.79986	21.42754	0.15364	76.93124
	824.7888	2.12364	9.08512	2407.85665	8.5	2.42852	0.29688	0.32528	-0.01074	4.48856	13.94799	9.14844	0.35927	131.71423	17.01875	19.31692	20.5742	21.18767	21.91679	0.15358	78.048
	824.9412	2.11807	9.08512	2406.87424	8.5	2.4085	0.30624	0.31062	-0.00787	4.48676	13.94241	9.28125	0.36074	132.44404	17.31019	19.81246	20.9749	21.56722	22.22127	0.15351	78.71751
	825.0936	2.11588	9.08512	2426.74959	8.5	2.37855	0.30823	0.31852	-0.00795	4.48497	13.93683	9.28571	0.36198	133.06885	16.88481	19.44016	20.53344	21.14101	21.7766	0.15344	86.11693
	825.246	2.12066	9.11946	2415.50015	8.5	2.36493	0.29427	0.32164	-0.00634	4.48317	13.93125	9.53125	0.3614	132.77463	16.82973	19.37878	20.50533	21.06795	21.69931	0.15338	92.14493
	825.3984	2.12947	9.1538	2415.74969	8.5	2.3896	0.30224	0.31218	-0.00822	4.48138	13.92567	9.45313	0.36055	132.3509	17.18369	19.78894	20.98475	21.61207	22.26119	0.15331	93.70793
	825.5508	2.133	9.1538	2426.572	8.5	2.43137	0.30162	0.31932	-0.01085	4.47958	13.92009	9.10156	0.35857	131.36621	17.17741	19.69518	20.84497	21.45769	22.11213	0.15324	92.2092
	825.7032	2.13532	8.99356	2428.99993	8.5	2.46963	0.29886	0.31201	-0.01171	4.47779	13.91451	9.21429	0.35708	130.6378	15.07713	17.09454	18.01744	18.49701	19.03776	0.15318	89.08308
	825.8556	2.14429	9.03934	2419.24997	8.5	2.4581	0.27875	0.30859	-0.01244	4.47599	13.90893	9.10938	0.35585	130.04045	16.29365	18.49366	19.53195	20.09865	20.65809	0.15311	86.56364
	826.008	2.15433	9.08512	2414.87519	8.5	2.44882	0.29307	0.30022	-0.01153	4.47419	13.90335	8.85938	0.35476	129.51616	17.16174	19.43116	20.51669	21.13848	21.69378	0.15305	81.42853
	826.1604	2.15244	9.06223	2394.42881	8.5	2.48578	0.32363	0.31108	-0.01025	4.4724	13.89777	8.98214	0.35575	129.99034	17.04604	19.37466	20.47606	21.03796	21.59896	0.15298	85.8943
	826.3128	2.14342	8.99356	2402.00038	8.5	2.54059	0.32228	0.33198	-0.00819	4.4706	13.8922	9.46875	0.35608	130.1489	17.10451	19.55215	20.65532	21.23549	21.75113	0.15292	91.98618
	826.4652	2.14106	8.99356	2420.00083	8.5	2.57628	0.31531	0.33524	-0.00173	4.46881	13.88662	9.64063	0.35614	130.17862	17.41023	19.81245	20.92626	21.55955	22.06615	0.15285	99.13085
	826.6176	2.14238	8.8791	2430.49941	8.5	2.56292	0.27996	0.32877	-0.0021	4.46701	13.88104	9.46875	0.35661	130.40725	17.52006	19.7536	20.98615	21.61323	22.09923	0.15279	95.11179
	826.77	2.14684	8.81042	2433.99968	8.5	2.54308	0.28544	0.29646	-0.00442	4.46522	13.87546	9.07813	0.3555	129.86989	17.35184	19.55136	20.78191	21.34286	21.89142	0.15272	87.29726
	826.9224	2.14926	8.83331	2426.99913	8.5	2.51721	0.27108	0.2941	-0.01142	4.46342	13.86988	8.95536	0.35561	129.92432	17.50995	19.79536	20.9596	21.58929	22.08658	0.15266	81.68345
	827.0748	2.15078	8.78753	2406.28524	8.5	2.50152	0.29773	0.28593	-0.01218	4.46163	13.8643	9.19531	0.35726	130.72366	17.61228	19.88138	21.06587	21.74817	22.26709	0.15259	85.25567
	827.2272	2.14615	8.77609	2411.37491	8.5	2.48682	0.30209	0.30687	-0.01285	4.45983	13.85872	9.39063	0.35802	131.09357	17.65152	19.99311	21.11286	21.80094	22.32135	0.15253	85.92553
	827.3796	2.13673	8.76464	2421.74984	8.5	2.47727	0.31065	0.31769	-0.01397	4.45804	13.85314	9.58036	0.3585	131.3314	17.91817	20.28111	21.3915	22.06531	22.60983	0.15246	82.38527
	827.532	2.13481	8.83331	2418.37546	8.5	2.46095	0.30505	0.32335	-0.01408	4.45624	13.84756	9.44531	0.35827	131.21774	17.78456	20.07841	21.25217	21.9354	22.44377	0.1524	75.4641
	827.6844	2.13752	8.74175	2428.99993	8.5	2.448	0.33012	0.30704	-0.01183	4.45445	13.84198	8.92188	0.35729	130.74061	17.48473	19.5896	20.64752	21.2574	21.79516	0.15233	78.55783
	827.8368	2.14364	8.74175	2408.71542	8.5	2.45465	0.32642	0.32512	-0.0098	4.45265	13.83641	8.49219	0.3563	130.25899	17.41273	19.54002	20.5929	21.22795	21.79974	0.15227	80.56737
	827.9892	2.15813	8.76464	2403.12442	8.5	2.46083	0.31332	0.33724	-0.00891	4.45086	13.83083	8.03906	0.35599	130.10775	17.53709	19.72106	20.79419	21.39042	21.9683	0.1522	82.80006
	828.1416	2.17389	8.71885	2413.37571	8.5	2.47132	0.32431	0.34694	-0.00871	4.44906	13.82525	7.98214	0.3559	130.06529	17.76397	20.05506	21.09722	21.70026	22.24489	0.15214	83.27876
	828.294	2.18881	8.74175	2415.00108	8.5	2.46535	0.33385	0.34301	-0.00737	4.44727	13.81967	8.13281	0.35641	130.30837	18.17118	20.50968	21.68853	22.26965	22.85902	0.15207	85.57494
	828.4464	2.17958	8.71885	2424.49926	8.5	2.48675	0.37316	0.33135	-0.00916	4.44547	13.81409	8.25	0.35694	130.56596	17.90655	20.10835	21.23894	21.82083	22.36539	0.15201	84.012
	828.5988	2.17346	8.74175	2418.37546	8.5	2.50073	0.3393	0.35682	-0.01083	4.44367	13.80851	8.07143	0.35673	130.46702	17.89998	20.11904	21.25145	21.83556	22.42499	0.15194	85.12822
	828.7512	2.16195	8.74175	2408.00053	8.5	2.53999	0.34461	0.35014	-0.01248	4.44188	13.80293	8.17188	0.35655	130.37613	17.99423	20.1901	21.22248	21.7957	22.36972	0.15187	86.62726
	828.9036	2.16152	8.78753	2415.14271	8.5	2.56406	0.30006	0.36497	-0.008	4.44008	13.79735	8.07031	0.35601	130.11507	17.90594	19.99013	21.08146	21.65707	22.19777	0.15181	86.53169
	829.056	2.15941	8.82187	2423.87429	8.5	2.58261	0.28748	0.32826	-0.00658	4.43829	13.79177	8.0625	0.35589	130.05609	17.87643	19.95018	20.99731	21.56284	22.1365	0.15174	84.9686
	829.2084	2.16612	8.8562	2426.50006	8.5	2.56707	0.28234	0.31755	-0.00584	4.43649	13.78619	8.08929	0.35594	130.08203	17.44052	19.41949	20.38484	20.93852	21.45863	0.15168	86.08496
	829.3608	2.16694	8.8791	2442.85716	8.5	2.56566	0.29331	0.30613	-0.01097	4.4347	13.78062	8.11719	0.3561	130.15905	17.49077	19.52796	20.49881	21.04092	21.54121	0.15161	89.7527
	829.5132	2.17946	8.90199	2420.12447	8.5	2.5383	0.29454	0.30803	-0.00942	4.4329	13.77504	8.23438	0.35589	130.05865	17.9781	20.12136	21.10008	21.64653	22.18316	0.15155	92.65579
