~VERSION	INFORMATION																				
VERS	.	2	:CWLS	Log	ASCII	Standard	-	VERSION	2												
WRAP	.	NO	:One	Line	per	Depth	step														
PROD	.	Schlumberger	Technology	Corp.	:LAS	Producer															
PROG	.	Horizon	LASWriter	7.3.92069.3100	:LAS	Program	name	and	version												
SOURCE.	2-Main[4]/Up	:Run&Pass	Information																		
CREA	.	11/27/2017	:LAS	Creation	date	{MM/DD/YYYY}															
#--------------------------------------------------																					
~WELL	INFORMATION																				
#MNEM	.UNIT	DATA	:DESCRIPTION																		
#----	------	--------------	-----------------------------																		
STRT	.m	289.8648	:START	DEPTH																	
STOP	.m	1205.6364	:STOP	DEPTH																	
STEP	.m	0.1524	:STEP																		
NULL	.	-999.25	:NULL	VALUE																	
COMP	.	:COMPANY																			
WELL	.	H-8	:WELL	NAME																	
FLD	.	:FIELD	NAME																		
RIGN	.	:Rig	Name																		
RIGTYP	.	Land	:Rig	Type																	
SON	.	CYTN-00096	:Service	Order	Number																
SRVC	.	Schlumberger	:SERVICE	COMPANY																	
DATE	.	:LOG	DATE(Composite	Date	for	Composite	LAP)	(MM/DD/YYYY)													
CLAB	.	Prefecture:	:County	Label																	
CNTY	.	:COUNTY																			
SLAB	.	Rig	Name	:State/Province	Label																
STAT	.	:STATE	or	PROVINCE																	
PROV	.	:STATE	or	PROVINCE																	
CTRY	.	:COUNTRY																			
CONT_REGION	.	Asia	:Continent	Region																	
SECT	.	:Section																			
TOWN	.	:Township																			
RANG	.	:Range																			
API	.	:API	NUMBER																		
UWI	.	:UNIQUE	WELL	ID																	
LUL	.	PATW	:Logging	Unit	Location																
LUN	.	OSLC#2147	:Logging	Unit	Number																
LOC	.	:FIELD	LOCATION																		
FL1	.	:Field	Location	Line	1																
FL2	.	:Field	Location	Line	2																
LATI	.deg	:LATITUDE																			
LONG	.deg	:LONGITUDE																			
PDAT	.	GL	:Local	Permanent	Datum																
LMF	.	GL	:Logging	Measured	From																
APD	.m	0	:Elevation	of	Depth	Reference	(LMF)	Above	Permanent	Datum											
EPD	.m	14.09	:Elevation	of	Permanent	Datum	(PDAT)	above	Mean	Sea	Level										
EKB	.m	-999.25	:Elevation	of	Kelly	Bushing	Above	Permanent	Datum												
EDF	.m	20.19	:Elevation	of	Drill	Floor	Above	Permanent	Datum												
EGL	.m	0	:Elevation	of	Ground	Level	Above	Permanent	Datum												
ECF	.m	-999.25	:Elevation	of	Casing	Flange	above	Permanent	Datum												
#--------------------------------------------------																					
~CURVE	INFORMATION																				
#MNEM	.UNIT	API	CODE	:DESCRIPTION																	
#----	------	--------------	-----------------------------																		
DEPT	.m	:	Depth	Index																	
RHOZ	.g/cm3	:	(HDRS-H)	(2in)	Standard	Resolution	Formation	Density													
CALI	.in	:	(HDRS-H)	(1in)	Caliper																
TENS	.lbf	:	(WLWorkflow)	(6in)	Cable	Tension															
BS	.in	:(RT)	(Borehole)	(6in)	Bit	Size															
PEFZ	.	:	(HDRS-H)	(2in)	Standard	Resolution	Formation	Photoelectric	Factor												
NPHI	.m3/m3	:	(HGNS-H)	(6in)	Thermal	Neutron	Porosity	(original	Ratio	Method)	in	Selected	Lithology								
TNPH	.m3/m3	:	(HGNS-H)	(6in)	Thermal	Neutron	Porosity	(Ratio	Method)	in	Selected	Lithology									
HDRA	.g/cm3	:	(HDRS-H)	(2in)	Density	Standoff	Correction														
ICV	.m3	:(RT)	(Borehole)	(6in)	Integrated	Cement	Volume														
IHV	.m3	:(RT)	(Borehole)	(6in)	Integrated	Hole	Volume														
SP	.mV	:	(SPA-A)	(6in)	Spontaneous	Potential															
SPHI	.m3/m3	:	(DSLT-H)	(6in)	Sonic	Porosity															
DT	.us/ft	:	(DSLT-H)	(6in)	Delta-T	(also	called	Slowness	or	Interval	Transit	Time)									
RLA1	.ohm.m	:	(HRLT-B)	(2in)	Apparent	Resistivity	from	Computed	Focusing	Mode	1										
RLA2	.ohm.m	:	(HRLT-B)	(2in)	Apparent	Resistivity	from	Computed	Focusing	Mode	2										
RLA3	.ohm.m	:	(HRLT-B)	(2in)	Apparent	Resistivity	from	Computed	Focusing	Mode	3										
RLA4	.ohm.m	:	(HRLT-B)	(2in)	Apparent	Resistivity	from	Computed	Focusing	Mode	4										
RLA5	.ohm.m	:	(HRLT-B)	(2in)	Apparent	Resistivity	from	Computed	Focusing	Mode	5										
ITT	.s	:	(DSLT-H)	(6in)	Integrated	Transit	Time														
GR	.gAPI	:	(HGNS-H)	(6in)	Gamma	Ray															
#-------------------------------------------------------------																					
#	DEPT	RHOZ	CALI	TENS	BS	PEFZ	NPHI	TNPH	HDRA	ICV	IHV	SP	SPHI	DT	RLA1	RLA2	RLA3	RLA4	RLA5	ITT	GR
#	(HDRS-H)	(HDRS-H)	(WLWorkflo)	(Borehole)	(HDRS-H)	(HGNS-H)	(HGNS-H)	(HDRS-H)	(Borehole)	(Borehole)	(SPA-A)	(DSLT-H)	(DSLT-H)	(HRLT-B)	(HRLT-B)	(HRLT-B)	(HRLT-B)	(HRLT-B)	(DSLT-H)	(HGNS-H)	
#	(RT)	(RT)	(RT)																		
#	(2in)	(1in)	(6in)	(6in)	(2in)	(6in)	(6in)	(2in)	(6in)	(6in)	(6in)	(6in)	(6in)	(2in)	(2in)	(2in)	(2in)	(2in)	(6in)	(6in)	
~ASCII																					
# ...
	1187.196	2.26865	9.41323	2827.7503	8.5	2.78675	-999.25	-999.25	0.00581	0.21904	0.68067	-999.25	0.32165	115.37829	2.9056	2.63539	2.49914	2.39561	2.20313	0.00602	-999.25
	1187.3484	2.26899	9.31785	2831.626	8.5	2.75776	-999.25	-999.25	0.0036	0.21725	0.6751	-999.25	0.32042	114.91237	2.93513	2.65516	2.52403	2.42756	2.22639	0.00596	-999.25
	1187.5008	2.28871	8.92488	2831.14267	8.5	2.78295	-999.25	-999.25	0.00567	0.21545	0.66952	-999.25	0.31796	113.99072	2.78871	2.52767	2.41078	2.31674	2.13327	0.00591	-999.25
	1187.6532	2.30402	8.86383	2824.00049	8.5	2.81521	-999.25	-999.25	0.00791	0.21365	0.66394	-999.25	0.31804	114.02077	3.05581	2.76067	2.60662	2.50677	2.27686	0.00585	-999.25
	1187.8056	2.30897	8.81729	2827.12533	8.5	2.84777	-999.25	-999.25	-0.00006	0.21186	0.65836	-999.25	0.31797	113.99389	2.95978	2.69981	2.55295	2.45765	2.26026	0.00579	-999.25
	1187.958	-999.25	8.23813	2824.25002	8.5	-999.25	-999.25	-999.25	-999.25	0.21006	0.65278	-999.25	0.31844	114.16979	3.02124	2.73702	2.58746	2.49957	2.29917	0.00574	-999.25
	1188.1104	-999.25	3.99747	2817.71483	8.5	-999.25	-999.25	-999.25	-999.25	0.20827	0.6472	-999.25	0.31901	114.38196	3.06856	2.7729	2.62939	2.52976	2.33699	0.00568	-999.25
	1188.2628	-999.25	3.99993	2816.87404	8.5	-999.25	-999.25	-999.25	-999.25	0.20647	0.64162	-999.25	0.32083	115.06639	2.66679	2.4249	2.30192	2.2174	2.04448	0.00562	-999.25
	1188.4152	-999.25	3.99747	2829.49931	8.5	-999.25	-999.25	-999.25	-999.25	0.20468	0.63604	-999.25	0.32128	115.23625	2.61071	2.37028	2.25926	2.18008	2.01052	0.00556	-999.25
	1188.5676	-999.25	3.99338	2821.24882	8.5	-999.25	-999.25	-999.25	-999.25	0.20288	0.63046	-999.25	0.3229	115.85399	2.64346	2.41182	2.29175	2.20924	2.04323	0.00551	-999.25
	1188.72	-999.25	3.99556	2841.28604	8.5	-999.25	-999.25	-999.25	-999.25	0.20109	0.62488	-999.25	0.31992	114.72273	2.92264	2.6498	2.51334	2.42393	2.23405	0.00545	-999.25
	1188.8724	-999.25	3.99556	2849.62421	8.5	-999.25	-999.25	-999.25	-999.25	0.19929	0.6193	-999.25	0.31903	114.39126	3.12347	2.83151	2.68503	2.5862	2.38653	0.00539	-999.25
	1189.0248	-999.25	4.00319	2887.87545	8.5	-999.25	-999.25	-999.25	-999.25	0.1975	0.61372	-999.25	0.3166	113.48734	2.96619	2.69002	2.55222	2.45114	2.25697	0.00533	-999.25
	1189.1772	-999.25	3.99993	2923.71449	8.5	-999.25	-999.25	-999.25	-999.25	0.1957	0.60814	-999.25	0.3154	113.04867	2.94311	2.70331	2.56277	2.47189	2.28045	0.00528	-999.25
	1189.3296	-999.25	3.99938	2897.12409	8.5	-999.25	-999.25	-999.25	-999.25	0.19391	0.60256	-999.25	0.31805	114.02681	2.85478	2.615	2.48783	2.39731	2.21784	0.00522	-999.25
	1189.482	-999.25	-999.25	2878.75046	8.5	-999.25	-999.25	-999.25	-999.25	0.19211	0.59699	-999.25	0.31485	112.84781	2.73488	2.49015	2.37505	2.28742	2.1123	0.00516	-999.25
	1189.6344	-999.25	-999.25	2865.99929	8.5	-999.25	-999.25	-999.25	-999.25	0.19031	0.59141	-999.25	0.31473	112.8049	3.14399	2.85018	2.71704	2.62367	2.42101	0.00511	-999.25
	1189.7868	-999.25	-999.25	2851.00004	8.5	-999.25	-999.25	-999.25	-999.25	0.18852	0.58583	-999.25	0.31533	113.02237	3.10463	2.81579	2.67014	2.58348	2.3871	0.00505	-999.25
	1189.9392	-999.25	-999.25	2857.8747	8.5	-999.25	-999.25	-999.25	-999.25	0.18672	0.58025	-999.25	0.3137	112.43264	2.80658	2.55019	2.4214	2.33919	2.15571	0.00499	-999.25
	1190.0916	-999.25	-999.25	2862.7508	8.5	-999.25	-999.25	-999.25	-999.25	0.18493	0.57467	-999.25	0.31464	112.77292	2.7676	2.50594	2.38123	2.3006	2.12275	0.00494	-999.25
	1190.244	-999.25	-999.25	2873.24938	8.5	-999.25	-999.25	-999.25	-999.25	0.18313	0.56909	-999.25	0.31492	112.87573	3.00946	2.73182	2.59247	2.49725	2.30945	0.00488	-999.25
	1190.3964	-999.25	-999.25	2870.99904	8.5	-999.25	-999.25	-999.25	-999.25	0.18134	0.56351	-999.25	0.31443	112.69754	3.07601	2.79479	2.64548	2.55601	2.36258	0.00482	-999.25
	1190.5488	-999.25	-999.25	2845.75075	8.5	-999.25	-999.25	-999.25	-999.25	0.17954	0.55793	-999.25	0.31486	112.85049	2.89839	2.64333	2.50416	2.41454	2.22809	0.00477	-999.25
	1190.7012	-999.25	-999.25	2836.12443	8.5	-999.25	-999.25	-999.25	-999.25	0.17775	0.55235	-999.25	0.31816	114.06591	2.82851	2.57698	2.44482	2.35616	2.18216	0.00471	-999.25
	1190.8536	-999.25	-999.25	2838.50066	8.5	-999.25	-999.25	-999.25	-999.25	0.17595	0.54677	-999.25	0.31913	114.4285	2.82216	2.56751	2.44546	2.35708	2.18409	0.00465	-999.25
	1191.006	-999.25	-999.25	2840.85666	8.5	-999.25	-999.25	-999.25	-999.25	0.17416	0.54119	-999.25	0.32139	115.27813	2.79625	2.56391	2.43973	2.35463	2.18278	0.0046	-999.25
	1191.1584	-999.25	-999.25	2868.24963	8.5	-999.25	-999.25	-999.25	-999.25	0.17236	0.53561	-999.25	0.32113	115.17987	2.69652	2.46802	2.35385	2.26812	2.09795	0.00454	-999.25
	1191.3108	-999.25	-999.25	2868.37552	8.5	-999.25	-999.25	-999.25	-999.25	0.17056	0.53003	-999.25	0.31902	114.38699	2.78064	2.54197	2.41053	2.32729	2.14572	0.00448	-999.25
	1191.4632	-999.25	-999.25	2890.75076	8.5	-999.25	-999.25	-999.25	-999.25	0.16877	0.52445	-999.25	0.31843	114.1647	2.88584	2.62002	2.48913	2.40101	2.21989	0.00443	-999.25
	1191.6156	-999.25	-999.25	2888.99949	8.5	-999.25	-999.25	-999.25	-999.25	0.16697	0.51887	-999.25	0.31872	114.27434	2.77859	2.52	2.40433	2.3195	2.14863	0.00437	-999.25
	1191.768	-999.25	-999.25	2881.8753	8.5	-999.25	-999.25	-999.25	-999.25	0.16518	0.5133	-999.25	0.31874	114.2826	2.68755	2.44921	2.3345	2.2543	2.08308	0.00431	-999.25
	1191.9204	-999.25	-999.25	2879.8745	8.5	-999.25	-999.25	-999.25	-999.25	0.16338	0.50772	-999.25	0.31832	114.12541	2.56351	2.34917	2.23062	2.16166	2.00068	0.00425	-999.25
	1192.0728	-999.25	-999.25	2876.00104	8.5	-999.25	-999.25	-999.25	-999.25	0.16159	0.50214	-999.25	0.31816	114.06655	2.66214	2.43076	2.31162	2.23668	2.06644	0.0042	-999.25
	1192.2252	-999.25	-999.25	2851.49912	8.5	-999.25	-999.25	-999.25	-999.25	0.15979	0.49656	-999.25	0.31612	113.3115	2.96404	2.6837	2.55792	2.47345	2.28788	0.00414	-999.25
	1192.3776	-999.25	-999.25	2855.25118	8.5	-999.25	-999.25	-999.25	-999.25	0.158	0.49098	-999.25	0.31553	113.0958	3.05708	2.77676	2.64691	2.55292	2.35904	0.00408	-999.25
	1192.53	-999.25	-999.25	2867.37512	8.5	-999.25	-999.25	-999.25	-999.25	0.1562	0.4854	-999.25	0.31549	113.08156	2.81361	2.56835	2.44491	2.36165	2.18489	0.00403	-999.25
	1192.6824	-999.25	-999.25	2855.71428	8.5	-999.25	-999.25	-999.25	-999.25	0.15441	0.47982	-999.25	0.31604	113.28492	2.63107	2.40846	2.29049	2.21685	2.05066	0.00397	-999.25
	1192.8348	-999.25	-999.25	2865.50022	8.5	-999.25	-999.25	-999.25	-999.25	0.15261	0.47424	-999.25	0.31582	113.20385	2.88453	2.63169	2.50937	2.42511	2.24572	0.00391	-999.25
	1192.9872	-999.25	-999.25	2865.12479	8.5	-999.25	-999.25	-999.25	-999.25	0.15082	0.46866	-999.25	0.318	114.00605	3.0176	2.73217	2.60513	2.51639	2.32942	0.00386	-999.25
	1193.1396	-999.25	-999.25	2853.00084	8.5	-999.25	-999.25	-999.25	-999.25	0.14902	0.46308	-999.25	0.31956	114.5899	2.91989	2.64542	2.51977	2.4371	2.25575	0.0038	-999.25
	1193.292	-999.25	-999.25	2880.12404	8.5	-999.25	-999.25	-999.25	-999.25	0.14722	0.4575	-999.25	0.31885	114.32277	2.61965	2.38985	2.27232	2.20151	2.04054	0.00374	-999.25
	1193.4444	-999.25	-999.25	2887.00094	8.5	-999.25	-999.25	-999.25	-999.25	0.14543	0.45192	-999.25	0.31736	113.7709	2.60383	2.36941	2.26011	2.18646	2.02851	0.00369	-999.25
	1193.5968	-999.25	-999.25	2888.37453	8.5	-999.25	-999.25	-999.25	-999.25	0.14363	0.44634	-999.25	0.31408	112.56947	2.89307	2.62791	2.51169	2.42535	2.24975	0.00363	-999.25
	1193.7492	-999.25	-999.25	2885.14177	8.5	-999.25	-999.25	-999.25	-999.25	0.14184	0.44076	-999.25	0.31385	112.48519	2.97774	2.69986	2.58025	2.49079	2.31266	0.00357	-999.25
	1193.9016	-999.25	-999.25	2868.00009	8.5	-999.25	-999.25	-999.25	-999.25	0.14004	0.43519	-999.25	0.31306	112.202	2.98051	2.70217	2.57965	2.49177	2.31217	0.00352	-999.25
	1194.054	-999.25	-999.25	2858.25013	8.5	-999.25	-999.25	-999.25	-999.25	0.13825	0.42961	-999.25	0.31412	112.58279	2.95892	2.68706	2.56374	2.47543	2.29519	0.00346	-999.25
	1194.2064	-999.25	-999.25	2856.2853	8.5	-999.25	-999.25	-999.25	-999.25	0.13645	0.42403	-999.25	0.31655	113.4721	2.94869	2.66804	2.54327	2.45691	2.2775	0.0034	-999.25
