~VERSION	INFORMATION																				
VERS	.	2	:CWLS	Log	ASCII	Standard	-	VERSION	2												
WRAP	.	NO	:One	Line	per	Depth	step														
PROD	.	Schlumberger	Technology	Corp.	:LAS	Producer															
PROG	.	Horizon	LASWriter	7.3.92069.3100	:LAS	Program	name	and	version												
SOURCE.	2-Main[4]/Up	:Run&Pass	Information																		
CREA	.	11/27/2017	:LAS	Creation	date	{MM/DD/YYYY}															
#--------------------------------------------------																					
~WELL	INFORMATION																				
#MNEM	.UNIT	DATA	:DESCRIPTION																		
#----	------	--------------	-----------------------------																		
STRT	.m	289.8648	:START	DEPTH																	
STOP	.m	1205.6364	:STOP	DEPTH																	
STEP	.m	0.1524	:STEP																		
NULL	.	-999.25	:NULL	VALUE																	
COMP	.	:COMPANY																			
WELL	.	H-8	:WELL	NAME																	
FLD	.	:FIELD	NAME																		
RIGN	.	:Rig	Name																		
RIGTYP	.	Land	:Rig	Type																	
SON	.	CYTN-00096	:Service	Order	Number																
SRVC	.	Schlumberger	:SERVICE	COMPANY																	
DATE	.	:LOG	DATE(Composite	Date	for	Composite	LAP)	(MM/DD/YYYY)													
CLAB	.	Prefecture:	:County	Label																	
CNTY	.	:COUNTY																			
SLAB	.	Rig	Name	:State/Province	Label																
STAT	.	:STATE	or	PROVINCE																	
PROV	.	:STATE	or	PROVINCE																	
CTRY	.	:COUNTRY																			
CONT_REGION	.	Asia	:Continent	Region																	
SECT	.	:Section																			
TOWN	.	:Township																			
RANG	.	:Range																			
API	.	:API	NUMBER																		
UWI	.	:UNIQUE	WELL	ID																	
LUL	.	PATW	:Logging	Unit	Location																
LUN	.	OSLC#2147	:Logging	Unit	Number																
LOC	.	:FIELD	LOCATION																		
FL1	.	:Field	Location	Line	1																
FL2	.	:Field	Location	Line	2																
LATI	.deg	:LATITUDE																			
LONG	.deg	:LONGITUDE																			
PDAT	.	GL	:Local	Permanent	Datum																
LMF	.	GL	:Logging	Measured	From																
APD	.m	0	:Elevation	of	Depth	Reference	(LMF)	Above	Permanent	Datum											
EPD	.m	14.09	:Elevation	of	Permanent	Datum	(PDAT)	above	Mean	Sea	Level										
EKB	.m	-999.25	:Elevation	of	Kelly	Bushing	Above	Permanent	Datum												
EDF	.m	20.19	:Elevation	of	Drill	Floor	Above	Permanent	Datum												
EGL	.m	0	:Elevation	of	Ground	Level	Above	Permanent	Datum												
ECF	.m	-999.25	:Elevation	of	Casing	Flange	above	Permanent	Datum												
#--------------------------------------------------																					
~CURVE	INFORMATION																				
#MNEM	.UNIT	API	CODE	:DESCRIPTION																	
#----	------	--------------	-----------------------------																		
DEPT	.m	:	Depth	Index																	
RHOZ	.g/cm3	:	(HDRS-H)	(2in)	Standard	Resolution	Formation	Density													
CALI	.in	:	(HDRS-H)	(1in)	Caliper																
TENS	.lbf	:	(WLWorkflow)	(6in)	Cable	Tension															
BS	.in	:(RT)	(Borehole)	(6in)	Bit	Size															
PEFZ	.	:	(HDRS-H)	(2in)	Standard	Resolution	Formation	Photoelectric	Factor												
NPHI	.m3/m3	:	(HGNS-H)	(6in)	Thermal	Neutron	Porosity	(original	Ratio	Method)	in	Selected	Lithology								
TNPH	.m3/m3	:	(HGNS-H)	(6in)	Thermal	Neutron	Porosity	(Ratio	Method)	in	Selected	Lithology									
HDRA	.g/cm3	:	(HDRS-H)	(2in)	Density	Standoff	Correction														
ICV	.m3	:(RT)	(Borehole)	(6in)	Integrated	Cement	Volume														
IHV	.m3	:(RT)	(Borehole)	(6in)	Integrated	Hole	Volume														
SP	.mV	:	(SPA-A)	(6in)	Spontaneous	Potential															
SPHI	.m3/m3	:	(DSLT-H)	(6in)	Sonic	Porosity															
DT	.us/ft	:	(DSLT-H)	(6in)	Delta-T	(also	called	Slowness	or	Interval	Transit	Time)									
RLA1	.ohm.m	:	(HRLT-B)	(2in)	Apparent	Resistivity	from	Computed	Focusing	Mode	1										
RLA2	.ohm.m	:	(HRLT-B)	(2in)	Apparent	Resistivity	from	Computed	Focusing	Mode	2										
RLA3	.ohm.m	:	(HRLT-B)	(2in)	Apparent	Resistivity	from	Computed	Focusing	Mode	3										
RLA4	.ohm.m	:	(HRLT-B)	(2in)	Apparent	Resistivity	from	Computed	Focusing	Mode	4										
RLA5	.ohm.m	:	(HRLT-B)	(2in)	Apparent	Resistivity	from	Computed	Focusing	Mode	5										
ITT	.s	:	(DSLT-H)	(6in)	Integrated	Transit	Time														
GR	.gAPI	:	(HGNS-H)	(6in)	Gamma	Ray															
#-------------------------------------------------------------																					
#	DEPT	RHOZ	CALI	TENS	BS	PEFZ	NPHI	TNPH	HDRA	ICV	IHV	SP	SPHI	DT	RLA1	RLA2	RLA3	RLA4	RLA5	ITT	GR
#	(HDRS-H)	(HDRS-H)	(WLWorkflo)	(Borehole)	(HDRS-H)	(HGNS-H)	(HGNS-H)	(HDRS-H)	(Borehole)	(Borehole)	(SPA-A)	(DSLT-H)	(DSLT-H)	(HRLT-B)	(HRLT-B)	(HRLT-B)	(HRLT-B)	(HRLT-B)	(DSLT-H)	(HGNS-H)	
#	(RT)	(RT)	(RT)																		
#	(2in)	(1in)	(6in)	(6in)	(2in)	(6in)	(6in)	(2in)	(6in)	(6in)	(6in)	(6in)	(6in)	(2in)	(2in)	(2in)	(2in)	(2in)	(6in)	(6in)	
~ASCII																					
# ...
	528.3708	2.17018	9.6803	1950.49994	8.5	2.49376	0.29645	0.3235	0.00491	7.98058	24.79914	4.44643	0.38344	144.89235	17.09546	19.74416	21.10915	22.3835	24.12494	0.28871	96.61069
	528.5232	2.14031	9.26825	1931.12501	8.5	2.42012	0.34014	0.31165	0.00115	7.97878	24.79356	7.4375	0.3883	147.86951	17.66549	20.35417	21.76886	22.93354	24.87148	0.28864	91.76239
	528.6756	2.11001	9.16524	1926.28577	8.5	2.36981	0.3261	0.33674	-0.00412	7.97699	24.78798	8.96875	0.39206	150.25064	17.63059	20.41214	21.87968	23.08982	25.1285	0.28857	87.74356
	528.828	2.0922	9.06223	1933.3749	8.5	2.35439	0.3149	0.3306	-0.00463	7.97519	24.7824	9.16071	0.39265	150.63472	18.58443	21.65495	23.42962	24.59332	26.84334	0.28849	89.97593
	528.9804	2.08016	8.99356	1937.12493	8.5	2.35646	0.33311	0.3265	-0.0059	7.97339	24.77682	9.15625	0.393	150.86491	18.69534	21.7431	23.69678	24.83134	27.02141	0.28842	89.21078
	529.1328	2.08612	8.99356	1924.12513	8.5	2.33719	0.33419	0.34512	-0.00564	7.9716	24.77124	8.36607	0.39175	150.05587	19.48023	22.95614	25.14288	26.36066	28.61805	0.28834	91.66662
	529.2852	2.09727	8.97066	1930.12506	8.5	2.30837	0.35299	0.34904	-0.00872	7.9698	24.76567	8.16406	0.39047	149.23587	19.27406	22.50083	24.66323	25.7828	27.85397	0.28827	91.44372
	529.4376	2.10826	8.99356	1923.75015	8.5	2.29899	0.32778	0.3568	-0.01013	7.96801	24.76009	8.36719	0.39001	148.94061	18.72085	22.06886	24.13964	25.26506	27.21838	0.28819	93.48447
	529.59	2.1062	8.77609	1910.71438	8.5	2.31561	0.3459	0.33752	-0.01153	7.96621	24.75451	8.16071	0.39048	149.24108	18.91232	22.46013	24.57651	25.75703	27.52613	0.28812	92.14528
	529.7424	2.0945	8.76464	1929.87507	8.5	2.32492	0.34509	0.35037	-0.01197	7.96442	24.74893	8.80469	0.39082	149.45984	18.92888	22.8596	25.03084	26.30994	28.12279	0.28804	92.59172
	529.8948	2.07096	8.71885	1932.74993	8.5	2.30164	0.34211	0.34689	-0.01195	7.96262	24.74335	9.78571	0.39336	151.09698	18.21276	22.2935	24.4854	25.77298	27.39931	0.28797	87.99883
	530.0472	2.04873	8.69596	1926.25003	8.5	2.23059	0.33468	0.34039	-0.01287	7.96082	24.73777	10.42188	0.39525	152.34093	17.58987	21.49236	23.60967	24.92054	26.30288	0.28789	80.63059
	530.1996	2.02995	8.65018	1927.62496	8.5	2.17041	0.32226	0.33471	-0.01411	7.95903	24.73219	10.9375	0.39741	153.78629	17.20043	20.89226	23.00838	24.21052	25.42778	0.28782	81.10926
	530.352	2.02555	8.5815	1922.62521	8.5	2.11952	0.33417	0.32815	-0.01468	7.95723	24.72661	11.46875	0.39795	154.15001	17.756	22.00985	24.44166	25.81511	26.99951	0.28774	76.83542
	530.5044	2.02841	8.53572	1921.71451	8.5	2.11169	0.34591	0.34187	-0.01299	7.95544	24.72103	11.61719	0.39782	154.06274	17.98914	22.82466	25.53915	27.05314	28.203	0.28766	79.5149
	530.6568	2.03145	8.53572	1918.74995	8.5	2.09804	0.34112	0.35404	-0.01301	7.95364	24.71545	11.71429	0.39542	152.45395	17.98794	23.15804	25.93042	27.45077	28.48954	0.28759	70.07369
	530.8092	2.04255	8.51283	1925.62506	8.5	2.08865	0.32786	0.34254	-0.01148	7.95185	24.70988	11.52344	0.39366	151.29284	18.36379	23.72713	26.74169	28.38217	29.44378	0.28751	70.74349
	530.9616	2.05169	8.51283	1931.00001	8.5	2.079	0.29863	0.33173	-0.01147	7.95005	24.7043	11.42969	0.39233	150.43026	18.55038	24.04928	27.37556	29.05042	30.1673	0.28743	70.90292
	531.114	2.06352	8.51283	1929.50009	8.5	2.08075	0.29587	0.31726	-0.00979	7.94825	24.69872	11.27679	0.39211	150.28527	18.27508	23.5689	26.94666	28.58217	29.76062	0.28736	72.94424
	531.2664	2.07004	8.53572	1917.85723	8.5	2.08214	0.29727	0.31331	-0.00948	7.94646	24.69314	10.69531	0.3927	150.66843	17.36612	21.90945	24.74563	26.25369	27.29399	0.28728	72.27462
	531.4188	2.07789	8.54717	1936.87495	8.5	2.08767	0.29295	0.30931	-0.00885	7.94466	24.68756	10.39063	0.39304	150.89036	17.88784	22.51968	25.26112	26.85497	27.81453	0.28721	71.25407
	531.5712	2.0886	8.53572	1952.42858	8.5	2.11211	0.30992	0.30499	-0.00875	7.94287	24.68198	10.19643	0.39357	151.23213	18.29327	23.02119	25.80852	27.39322	28.39869	0.28713	70.36086
	531.7236	2.09004	8.55861	1947.62508	8.5	2.14774	0.31475	0.32825	-0.01283	7.94107	24.6764	9.96875	0.39312	150.94181	18.31099	23.16	25.91582	27.40307	28.41544	0.28706	71.828
	531.876	2.08456	8.55861	1946.7499	8.5	2.17217	0.34363	0.33803	-0.01461	7.93928	24.67082	9.80357	0.39573	152.65908	18.45625	23.54539	26.46492	27.9353	29.04054	0.28698	71.79581
	532.0284	2.06386	8.5815	1929.85731	8.5	2.16959	0.32367	0.368	-0.01467	7.93748	24.66524	10.17969	0.39764	153.94314	18.13047	22.8137	25.56562	26.90861	28.04973	0.2869	74.6986
	532.1808	2.0389	8.6044	1933.74988	8.5	2.132	0.3132	0.33549	-0.01501	7.93568	24.65966	10.60938	0.39973	155.37247	18.66202	23.45334	26.40154	27.87661	29.10678	0.28683	69.65907
	532.3332	2.02371	8.6044	1923.85716	8.5	2.08859	0.30141	0.31437	-0.0155	7.93389	24.65409	11.07143	0.40151	156.60386	18.8108	24.2569	27.42735	28.95062	30.42042	0.28675	70.20134
	532.4856	2.01581	8.6044	1924.50011	8.5	2.06826	0.31429	0.30671	-0.01995	7.93209	24.64851	11.54688	0.40204	156.9823	18.51734	23.75191	26.62699	28.23132	29.57017	0.28667	64.17303
	532.638	2.01754	8.62729	1938.62508	8.5	2.06693	0.33779	0.31621	-0.02231	7.9303	24.64293	11.58594	0.40315	157.76161	17.95034	22.80279	25.43332	26.94753	28.22829	0.28659	67.68143
	532.7904	2.01173	8.62729	1934.85706	8.5	2.07696	0.32923	0.33533	-0.0264	7.9285	24.63735	11.59821	0.40384	158.25673	18.44075	23.52015	26.30408	27.86778	29.18363	0.28651	60.21799
	532.9428	2.01024	8.67307	1931.12501	8.5	2.05966	0.35647	0.33562	-0.02685	7.92671	24.63177	11.82031	0.40265	157.40792	19.18402	24.74386	27.75364	29.53273	30.91152	0.28644	60.66457
	533.0952	2.00911	8.69596	1931.74998	8.5	2.05551	0.3381	0.36395	-0.02188	7.92491	24.62619	11.66406	0.40286	157.56121	19.21073	25.07668	28.1433	29.99341	31.47136	0.28636	58.49585
	533.2476	2.00905	8.69596	1932.14294	8.5	2.06402	0.33107	0.34657	-0.01878	7.92311	24.62061	11.30357	0.40206	156.99044	19.42189	25.3374	28.45082	30.29607	31.84167	0.28628	60.60086
	533.4	2.01404	8.71885	1936.87495	8.5	2.09204	0.27998	0.34515	-0.01818	7.92132	24.61503	10.9375	0.40181	156.82048	19.28003	25.20469	28.61582	30.37894	31.94983	0.2862	65.28966
	533.5524	2.02009	8.74175	1930.50004	8.5	2.13509	0.28118	0.3049	-0.02086	7.91952	24.60945	10.23438	0.40075	156.07394	19.02547	24.63698	28.03058	29.67683	31.27394	0.28612	73.07226
	533.7048	2.03175	8.76464	1933.42862	8.5	2.19269	0.31425	0.31974	-0.01909	7.91773	24.60387	9.33929	0.39735	153.74722	18.86079	24.2402	27.46703	29.05609	30.58674	0.28604	76.10233
	533.8572	2.04035	8.90199	1947.37487	8.5	2.2651	0.3662	0.35381	-0.01497	7.91593	24.5983	8.74219	0.39614	152.93367	18.75905	24.1511	27.08617	28.68824	30.13612	0.28597	71.41373
	534.0096	2.05212	8.94777	1938.4286	8.5	2.28422	0.35536	0.38115	-0.01092	7.91414	24.59272	8.86607	0.39586	152.74375	18.86906	24.51875	27.52528	29.25728	30.82038	0.28589	61.17499
	534.162	2.05081	8.97066	1936.37497	8.5	2.26361	0.32509	0.34796	-0.01149	7.91234	24.58714	8.88281	0.39623	152.99238	18.56179	23.59317	26.30606	27.92702	29.36675	0.28581	60.95193
	534.3144	2.04774	8.99356	1943.12486	8.5	2.21957	0.28325	0.32013	-0.01191	7.91054	24.58156	8.63281	0.39659	153.22994	17.19015	21.15825	23.40202	24.68218	25.96371	0.28574	63.18429
	534.4668	2.04206	8.99356	1944.28555	8.5	2.21723	0.30505	0.30109	-0.01077	7.90875	24.57598	8.60714	0.39548	152.48888	16.89567	20.68689	22.87859	24.04773	25.32415	0.28566	64.07761
	534.6192	2.05563	9.03934	1942.49989	8.5	2.25732	0.31373	0.33486	-0.00371	7.90695	24.5704	8.28906	0.39351	151.19683	17.50441	21.66657	24.03034	25.35923	26.67922	0.28558	66.11864
	534.7716	2.07375	9.17669	1953.99999	8.5	2.29737	0.32675	0.33626	0.00343	7.90516	24.56482	7.51563	0.39079	149.43902	18.98081	24.13327	27.07067	28.55894	30.12795	0.28551	73.70997
	534.924	2.0879	9.19958	1944.62501	8.5	2.32494	0.29552	0.34244	0.00749	7.90336	24.55924	6.74107	0.38854	148.01771	18.36682	22.95331	25.66232	27.0805	28.48679	0.28543	81.52406
	535.0764	2.09227	9.24536	1931.87497	8.5	2.30746	0.30243	0.30769	0.00681	7.90157	24.55366	6.60156	0.38695	147.02997	17.75099	22.23595	24.86133	26.40262	27.83768	0.28536	82.80024
	535.2288	2.08505	9.21102	1927.42847	8.5	2.26428	0.33672	0.33139	0.00361	7.89977	24.54808	6.58594	0.3884	147.9306	18.38109	22.94538	25.85228	27.47214	29.02776	0.28529	80.34403
