~VERSION	INFORMATION																				
VERS	.	2	:CWLS	Log	ASCII	Standard	-	VERSION	2												
WRAP	.	NO	:One	Line	per	Depth	step														
PROD	.	Schlumberger	Technology	Corp.	:LAS	Producer															
PROG	.	Horizon	LASWriter	7.3.92069.3100	:LAS	Program	name	and	version												
SOURCE.	2-Main[4]/Up	:Run&Pass	Information																		
CREA	.	11/27/2017	:LAS	Creation	date	{MM/DD/YYYY}															
#--------------------------------------------------																					
~WELL	INFORMATION																				
#MNEM	.UNIT	DATA	:DESCRIPTION																		
#----	------	--------------	-----------------------------																		
STRT	.m	289.8648	:START	DEPTH																	
STOP	.m	1205.6364	:STOP	DEPTH																	
STEP	.m	0.1524	:STEP																		
NULL	.	-999.25	:NULL	VALUE																	
COMP	.	:COMPANY																			
WELL	.	H-8	:WELL	NAME																	
FLD	.	:FIELD	NAME																		
RIGN	.	:Rig	Name																		
RIGTYP	.	Land	:Rig	Type																	
SON	.	CYTN-00096	:Service	Order	Number																
SRVC	.	Schlumberger	:SERVICE	COMPANY																	
DATE	.	:LOG	DATE(Composite	Date	for	Composite	LAP)	(MM/DD/YYYY)													
CLAB	.	Prefecture:	:County	Label																	
CNTY	.	:COUNTY																			
SLAB	.	Rig	Name	:State/Province	Label																
STAT	.	:STATE	or	PROVINCE																	
PROV	.	:STATE	or	PROVINCE																	
CTRY	.	:COUNTRY																			
CONT_REGION	.	Asia	:Continent	Region																	
SECT	.	:Section																			
TOWN	.	:Township																			
RANG	.	:Range																			
API	.	:API	NUMBER																		
UWI	.	:UNIQUE	WELL	ID																	
LUL	.	PATW	:Logging	Unit	Location																
LUN	.	OSLC#2147	:Logging	Unit	Number																
LOC	.	:FIELD	LOCATION																		
FL1	.	:Field	Location	Line	1																
FL2	.	:Field	Location	Line	2																
LATI	.deg	:LATITUDE																			
LONG	.deg	:LONGITUDE																			
PDAT	.	GL	:Local	Permanent	Datum																
LMF	.	GL	:Logging	Measured	From																
APD	.m	0	:Elevation	of	Depth	Reference	(LMF)	Above	Permanent	Datum											
EPD	.m	14.09	:Elevation	of	Permanent	Datum	(PDAT)	above	Mean	Sea	Level										
EKB	.m	-999.25	:Elevation	of	Kelly	Bushing	Above	Permanent	Datum												
EDF	.m	20.19	:Elevation	of	Drill	Floor	Above	Permanent	Datum												
EGL	.m	0	:Elevation	of	Ground	Level	Above	Permanent	Datum												
ECF	.m	-999.25	:Elevation	of	Casing	Flange	above	Permanent	Datum												
#--------------------------------------------------																					
~CURVE	INFORMATION																				
#MNEM	.UNIT	API	CODE	:DESCRIPTION																	
#----	------	--------------	-----------------------------																		
DEPT	.m	:	Depth	Index																	
RHOZ	.g/cm3	:	(HDRS-H)	(2in)	Standard	Resolution	Formation	Density													
CALI	.in	:	(HDRS-H)	(1in)	Caliper																
TENS	.lbf	:	(WLWorkflow)	(6in)	Cable	Tension															
BS	.in	:(RT)	(Borehole)	(6in)	Bit	Size															
PEFZ	.	:	(HDRS-H)	(2in)	Standard	Resolution	Formation	Photoelectric	Factor												
NPHI	.m3/m3	:	(HGNS-H)	(6in)	Thermal	Neutron	Porosity	(original	Ratio	Method)	in	Selected	Lithology								
TNPH	.m3/m3	:	(HGNS-H)	(6in)	Thermal	Neutron	Porosity	(Ratio	Method)	in	Selected	Lithology									
HDRA	.g/cm3	:	(HDRS-H)	(2in)	Density	Standoff	Correction														
ICV	.m3	:(RT)	(Borehole)	(6in)	Integrated	Cement	Volume														
IHV	.m3	:(RT)	(Borehole)	(6in)	Integrated	Hole	Volume														
SP	.mV	:	(SPA-A)	(6in)	Spontaneous	Potential															
SPHI	.m3/m3	:	(DSLT-H)	(6in)	Sonic	Porosity															
DT	.us/ft	:	(DSLT-H)	(6in)	Delta-T	(also	called	Slowness	or	Interval	Transit	Time)									
RLA1	.ohm.m	:	(HRLT-B)	(2in)	Apparent	Resistivity	from	Computed	Focusing	Mode	1										
RLA2	.ohm.m	:	(HRLT-B)	(2in)	Apparent	Resistivity	from	Computed	Focusing	Mode	2										
RLA3	.ohm.m	:	(HRLT-B)	(2in)	Apparent	Resistivity	from	Computed	Focusing	Mode	3										
RLA4	.ohm.m	:	(HRLT-B)	(2in)	Apparent	Resistivity	from	Computed	Focusing	Mode	4										
RLA5	.ohm.m	:	(HRLT-B)	(2in)	Apparent	Resistivity	from	Computed	Focusing	Mode	5										
ITT	.s	:	(DSLT-H)	(6in)	Integrated	Transit	Time														
GR	.gAPI	:	(HGNS-H)	(6in)	Gamma	Ray															
#-------------------------------------------------------------																					
#	DEPT	RHOZ	CALI	TENS	BS	PEFZ	NPHI	TNPH	HDRA	ICV	IHV	SP	SPHI	DT	RLA1	RLA2	RLA3	RLA4	RLA5	ITT	GR
#	(HDRS-H)	(HDRS-H)	(WLWorkflo)	(Borehole)	(HDRS-H)	(HGNS-H)	(HGNS-H)	(HDRS-H)	(Borehole)	(Borehole)	(SPA-A)	(DSLT-H)	(DSLT-H)	(HRLT-B)	(HRLT-B)	(HRLT-B)	(HRLT-B)	(HRLT-B)	(DSLT-H)	(HGNS-H)	
#	(RT)	(RT)	(RT)																		
#	(2in)	(1in)	(6in)	(6in)	(2in)	(6in)	(6in)	(2in)	(6in)	(6in)	(6in)	(6in)	(6in)	(2in)	(2in)	(2in)	(2in)	(2in)	(6in)	(6in)	
~ASCII																					
# ...
	1065.4284	2.28722	11.87789	2720.5007	8.5	2.98837	0.32341	0.34379	0.0171	1.65357	5.13857	13.92188	0.33622	121.20159	4.32057	3.99098	3.7786	3.62975	3.34945	0.05473	115.9069
	1065.5808	2.29345	11.99235	2727.24946	8.5	3.02817	0.33014	0.33824	0.02297	1.65177	5.13299	13.10156	0.33809	121.99099	4.26537	3.94375	3.72741	3.58872	3.30307	0.05467	125.5072
	1065.7332	2.30429	12.01524	2722.85669	8.5	3.0668	0.33397	0.34435	0.02961	1.64998	5.12741	13.41964	0.33952	122.5987	4.10334	3.79712	3.60737	3.46349	3.2049	0.05461	126.1773
	1065.8856	2.31429	12.10681	2712.12431	8.5	3.07264	0.34733	0.35263	0.03033	1.64818	5.12183	12.53125	0.34099	123.23302	4.01004	3.70764	3.53258	3.38594	3.13438	0.05455	129.2714
	1066.038	2.31029	12.1297	2702.99932	8.5	3.0434	0.34729	0.35917	0.02994	1.64639	5.11625	12.8125	0.34038	122.9729	4.09798	3.79763	3.59372	3.46019	3.19407	0.05449	128.1552
	1066.1904	2.29281	12.16404	2681.87627	8.5	2.98247	0.33097	0.35	0.02145	1.64459	5.11067	13.4375	0.34026	122.92075	4.36467	4.03711	3.84399	3.68641	3.41788	0.05443	129.2713
	1066.3428	2.2663	12.23271	2675.50069	8.5	2.93381	0.33007	0.34679	0.01145	1.6428	5.10509	13.21094	0.3405	123.02347	4.37601	4.05708	3.85721	3.69547	3.42002	0.05437	130.3873
	1066.4952	2.24622	12.20982	2679.2505	8.5	2.92768	0.30696	0.34504	0.00217	1.641	5.09951	13.42857	0.34047	123.00972	4.16714	3.87668	3.66911	3.5386	3.27658	0.0543	125.0287
	1066.6476	2.25693	12.31283	2668.00106	8.5	2.93404	0.30264	0.31825	0.00567	1.63921	5.09393	14.28125	0.34036	122.96171	4.13615	3.84712	3.63952	3.50561	3.25211	0.05424	124.4232
	1066.8	2.28182	12.31283	2689.71536	8.5	2.95095	0.29138	0.3121	0.01649	1.63741	5.08835	14.45313	0.34172	123.55068	4.34448	3.98413	3.80648	3.65601	3.38842	0.05418	121.9673
	1066.9524	2.30513	12.33572	2711.49935	8.5	2.9516	0.30471	0.30329	0.02427	1.63562	5.08277	14.53906	0.34176	123.56872	4.24059	3.90965	3.72958	3.59603	3.32889	0.05412	133.354
	1067.1048	2.31018	12.45018	2729.25026	8.5	2.98152	0.30549	0.30904	0.02621	1.63382	5.07719	14.45313	0.34803	126.36789	4.13389	3.82629	3.65009	3.51421	3.26373	0.05406	133.7366
	1067.2572	2.29801	12.42729	2728.37575	8.5	2.99076	0.30322	0.31291	0.01403	1.63203	5.07161	14.66964	0.35003	127.28844	4.23113	3.92958	3.74224	3.60545	3.34974	0.054	127.262
	1067.4096	2.30227	12.42729	2714.50055	8.5	2.99659	0.30638	0.30747	0.01079	1.63023	5.06604	14.69531	0.34811	126.40327	4.28759	3.98569	3.80301	3.66438	3.39759	0.05393	114.9821
	1067.562	2.31037	12.48452	2707.62589	8.5	2.9797	0.30431	0.31854	0.01171	1.62843	5.06046	13.6875	0.34617	125.52591	4.28473	3.98928	3.79541	3.65452	3.40122	0.05387	120.7235
	1067.7144	2.30116	12.47307	2712.57168	8.5	2.98661	0.33483	0.31347	0.01253	1.62664	5.05488	13.92969	0.33996	122.7913	4.20763	3.91903	3.73002	3.59408	3.34839	0.05381	124.0727
	1067.8668	2.28757	12.63331	2708.74993	8.5	2.99616	0.29839	0.34477	0.00965	1.62484	5.0493	13.32813	0.34127	123.35692	4.18611	3.88155	3.68376	3.55164	3.30078	0.05374	127.1983
	1068.0192	2.27581	12.70199	2724.50005	8.5	3.02753	0.29742	0.31341	0.00432	1.62305	5.04372	13.44531	0.34426	124.6714	4.11642	3.82593	3.64549	3.5145	3.26917	0.05368	118.5543
	1068.1716	2.28715	12.66765	2743.62454	8.5	3.04853	0.27117	0.31654	0.00769	1.62125	5.03814	14.77344	0.3465	125.67261	4.08888	3.79209	3.62382	3.48963	3.26041	0.05362	130.3872
	1068.324	2.28855	12.64476	2742.99957	8.5	3.05391	0.2979	0.2998	0.00823	1.61946	5.03256	15.48214	0.34808	126.39209	4.0263	3.72832	3.55675	3.4272	3.19614	0.05356	134.4057
	1068.4764	2.28786	12.58753	2740.00062	8.5	3.02007	0.3079	0.31332	0.00761	1.61766	5.02698	15.33594	0.34923	126.91936	4.0199	3.75325	3.58263	3.44766	3.22126	0.05349	137.7552
	1068.6288	2.28417	12.6562	2734.49955	8.5	2.97586	0.31875	0.30427	0.00574	1.61587	5.0214	15.28125	0.34558	125.25847	4.07644	3.79632	3.62083	3.48865	3.26533	0.05343	124.9967
	1068.7812	2.28637	12.70199	2728.00032	8.5	2.94656	0.33239	0.31761	0.00609	1.61407	5.01582	15.42188	0.34309	124.15111	4.26738	3.97366	3.79096	3.65823	3.42432	0.05337	118.9691
	1068.9336	2.27976	12.74777	2733.62504	8.5	2.91836	0.34211	0.33294	0.00468	1.61228	5.01024	15	0.34122	123.33567	4.34342	4.05861	3.86725	3.74269	3.49613	0.05331	121.4248
	1069.086	2.28208	12.77066	2730.99927	8.5	2.92974	0.31055	0.35454	0.00744	1.61048	5.00466	14.96875	0.34065	123.08668	4.08711	3.81511	3.63814	3.51437	3.29203	0.05324	127.0389
	1069.2384	2.28219	12.77066	2724.00097	8.5	2.9284	0.28199	0.3403	0.00911	1.60869	4.99908	14.13281	0.34083	123.16587	4.0084	3.73331	3.57057	3.44445	3.21547	0.05318	126.5922
	1069.3908	2.29009	12.82789	2717.87493	8.5	2.94832	0.27154	0.31185	0.01255	1.60689	4.9935	15.07031	0.34369	124.41707	4.0204	3.75386	3.59132	3.47662	3.24846	0.05312	121.9033
	1069.5432	2.28664	12.89657	2697.62414	8.5	2.93666	0.30965	0.29632	0.01066	1.60509	4.98792	15.375	0.34641	125.63408	3.90511	3.62196	3.4656	3.3571	3.13055	0.05306	126.8152
	1069.6956	2.2813	12.90801	2705.12601	8.5	2.92534	0.34974	0.31825	0.00806	1.6033	4.98234	15.25	0.34674	125.7827	3.65872	3.42673	3.283	3.18571	2.97973	0.053	127.9321
	1069.848	2.28649	12.90801	2710.85639	8.5	2.94422	0.3566	0.34824	0.01059	1.6015	4.97676	13.61719	0.34584	125.37546	3.78603	3.52217	3.37306	3.26217	3.06013	0.05293	132.9082
	1070.0004	2.29394	13.13693	2713.25061	8.5	2.98923	0.34247	0.36937	0.01489	1.59971	4.97118	13.8125	0.34562	125.27603	3.90849	3.65727	3.50938	3.38574	3.17589	0.05287	129.7822
	1070.1528	2.3019	13.18271	2719.62619	8.5	3.08513	0.32343	0.3578	0.02131	1.59791	4.9656	14.13281	0.34801	126.35828	3.78172	3.54512	3.3993	3.28415	3.07751	0.05281	134.9171
	1070.3052	2.30282	13.14837	2724.99912	8.5	3.16943	0.31781	0.34034	0.02395	1.59612	4.96003	13.53906	0.34886	126.74922	3.51066	3.28793	3.15236	3.04966	2.85331	0.05274	129.4946
	1070.4576	2.3006	13.13693	2716.62499	8.5	3.22332	0.31239	0.34106	0.02817	1.59432	4.95445	15	0.35112	127.79246	3.52254	3.29147	3.15515	3.05878	2.85682	0.05268	126.8156
	1070.61	2.30925	13.11404	2714.25101	8.5	3.21192	0.31921	0.32672	0.0332	1.59253	4.94887	15.78571	0.3537	129.00642	3.48982	3.26303	3.1303	3.03195	2.838	0.05262	123.4662
	1070.7624	2.30686	13.04536	2705.85664	8.5	3.14707	0.31092	0.32813	0.03032	1.59073	4.94329	16.46094	0.35223	128.31141	3.45624	3.2356	3.09183	2.99747	2.80891	0.05255	131.2802
	1070.9148	2.30085	13.29717	2701.37395	8.5	3.08155	0.34494	0.33138	0.02248	1.58894	4.93771	16.34375	0.35664	130.42166	3.41292	3.18195	3.04695	2.95263	2.76205	0.05249	132.8431
	1071.0672	2.29622	13.25138	2712.62564	8.5	3.04198	0.34829	0.36162	0.01719	1.58714	4.93213	15.96875	0.36057	132.3615	3.3224	3.11929	2.99761	2.90503	2.71947	0.05242	133.7047
	1071.2196	2.28599	13.11404	2715.62459	8.5	3.02959	0.35949	0.36883	0.01258	1.58534	4.92655	13.58594	0.35866	131.41135	3.22019	3.02767	2.90999	2.82587	2.63861	0.05236	131.0259
	1071.372	2.27909	13.42307	2719.3744	8.5	3.02377	0.37497	0.36353	0.00842	1.58355	4.92097	12.79688	0.35626	130.23504	3.69171	3.45695	3.32406	3.21746	2.99548	0.05229	129.2394
	1071.5244	2.27565	13.28572	2714.62419	8.5	3.00604	0.39457	0.36619	0.00269	1.58175	4.91539	12.96429	0.35391	129.11026	3.96991	3.72063	3.55964	3.45581	3.21183	0.05223	131.727
	1071.6768	2.27991	13.04536	2695.87512	8.5	2.99767	0.39571	0.38016	0.00284	1.57996	4.90981	13.1875	0.35141	127.9277	3.80658	3.5476	3.39578	3.30026	3.05601	0.05216	127.2613
	1071.8292	2.2799	12.99957	2711.49935	8.5	2.99094	0.35428	0.39283	0.00468	1.57816	4.90423	14.57031	0.35584	130.0357	3.45335	3.22804	3.10262	3.01879	2.79713	0.0521	127.9315
	1071.9816	2.26483	12.99957	2732.14355	8.5	2.98781	0.32018	0.36925	0.00382	1.57637	4.89865	15.35156	0.35991	132.03244	3.30977	3.08268	2.97203	2.88823	2.67647	0.05203	130.1638
	1072.134	2.26632	12.97669	2744.24951	8.5	3.01152	0.35134	0.34584	0.00742	1.57457	4.89307	16.28125	0.35989	132.02281	3.26961	3.04249	2.93738	2.85597	2.64832	0.05197	135.6821
	1072.2864	2.28078	13.09114	2743.75044	8.5	3.02508	0.36077	0.35436	0.01134	1.57278	4.88749	15	0.35564	129.9395	3.64384	3.42632	3.28659	3.18386	2.94757	0.0519	139.7008
	1072.4388	2.29501	13.17126	2724.37415	8.5	3.04202	0.35284	0.36203	0.01601	1.57098	4.88191	14.10938	0.35523	129.74062	3.81599	3.58542	3.43709	3.32049	3.07592	0.05184	136.5755
