~VERSION	INFORMATION																				
VERS	.	2	:CWLS	Log	ASCII	Standard	-	VERSION	2												
WRAP	.	NO	:One	Line	per	Depth	step														
PROD	.	Schlumberger	Technology	Corp.	:LAS	Producer															
PROG	.	Horizon	LASWriter	7.3.92069.3100	:LAS	Program	name	and	version												
SOURCE.	2-Main[4]/Up	:Run&Pass	Information																		
CREA	.	11/27/2017	:LAS	Creation	date	{MM/DD/YYYY}															
#--------------------------------------------------																					
~WELL	INFORMATION																				
#MNEM	.UNIT	DATA	:DESCRIPTION																		
#----	------	--------------	-----------------------------																		
STRT	.m	289.8648	:START	DEPTH																	
STOP	.m	1205.6364	:STOP	DEPTH																	
STEP	.m	0.1524	:STEP																		
NULL	.	-999.25	:NULL	VALUE																	
COMP	.	:COMPANY																			
WELL	.	H-8	:WELL	NAME																	
FLD	.	:FIELD	NAME																		
RIGN	.	:Rig	Name																		
RIGTYP	.	Land	:Rig	Type																	
SON	.	CYTN-00096	:Service	Order	Number																
SRVC	.	Schlumberger	:SERVICE	COMPANY																	
DATE	.	:LOG	DATE(Composite	Date	for	Composite	LAP)	(MM/DD/YYYY)													
CLAB	.	Prefecture:	:County	Label																	
CNTY	.	:COUNTY																			
SLAB	.	Rig	Name	:State/Province	Label																
STAT	.	:STATE	or	PROVINCE																	
PROV	.	:STATE	or	PROVINCE																	
CTRY	.	:COUNTRY																			
CONT_REGION	.	Asia	:Continent	Region																	
SECT	.	:Section																			
TOWN	.	:Township																			
RANG	.	:Range																			
API	.	:API	NUMBER																		
UWI	.	:UNIQUE	WELL	ID																	
LUL	.	PATW	:Logging	Unit	Location																
LUN	.	OSLC#2147	:Logging	Unit	Number																
LOC	.	:FIELD	LOCATION																		
FL1	.	:Field	Location	Line	1																
FL2	.	:Field	Location	Line	2																
LATI	.deg	:LATITUDE																			
LONG	.deg	:LONGITUDE																			
PDAT	.	GL	:Local	Permanent	Datum																
LMF	.	GL	:Logging	Measured	From																
APD	.m	0	:Elevation	of	Depth	Reference	(LMF)	Above	Permanent	Datum											
EPD	.m	14.09	:Elevation	of	Permanent	Datum	(PDAT)	above	Mean	Sea	Level										
EKB	.m	-999.25	:Elevation	of	Kelly	Bushing	Above	Permanent	Datum												
EDF	.m	20.19	:Elevation	of	Drill	Floor	Above	Permanent	Datum												
EGL	.m	0	:Elevation	of	Ground	Level	Above	Permanent	Datum												
ECF	.m	-999.25	:Elevation	of	Casing	Flange	above	Permanent	Datum												
#--------------------------------------------------																					
~CURVE	INFORMATION																				
#MNEM	.UNIT	API	CODE	:DESCRIPTION																	
#----	------	--------------	-----------------------------																		
DEPT	.m	:	Depth	Index																	
RHOZ	.g/cm3	:	(HDRS-H)	(2in)	Standard	Resolution	Formation	Density													
CALI	.in	:	(HDRS-H)	(1in)	Caliper																
TENS	.lbf	:	(WLWorkflow)	(6in)	Cable	Tension															
BS	.in	:(RT)	(Borehole)	(6in)	Bit	Size															
PEFZ	.	:	(HDRS-H)	(2in)	Standard	Resolution	Formation	Photoelectric	Factor												
NPHI	.m3/m3	:	(HGNS-H)	(6in)	Thermal	Neutron	Porosity	(original	Ratio	Method)	in	Selected	Lithology								
TNPH	.m3/m3	:	(HGNS-H)	(6in)	Thermal	Neutron	Porosity	(Ratio	Method)	in	Selected	Lithology									
HDRA	.g/cm3	:	(HDRS-H)	(2in)	Density	Standoff	Correction														
ICV	.m3	:(RT)	(Borehole)	(6in)	Integrated	Cement	Volume														
IHV	.m3	:(RT)	(Borehole)	(6in)	Integrated	Hole	Volume														
SP	.mV	:	(SPA-A)	(6in)	Spontaneous	Potential															
SPHI	.m3/m3	:	(DSLT-H)	(6in)	Sonic	Porosity															
DT	.us/ft	:	(DSLT-H)	(6in)	Delta-T	(also	called	Slowness	or	Interval	Transit	Time)									
RLA1	.ohm.m	:	(HRLT-B)	(2in)	Apparent	Resistivity	from	Computed	Focusing	Mode	1										
RLA2	.ohm.m	:	(HRLT-B)	(2in)	Apparent	Resistivity	from	Computed	Focusing	Mode	2										
RLA3	.ohm.m	:	(HRLT-B)	(2in)	Apparent	Resistivity	from	Computed	Focusing	Mode	3										
RLA4	.ohm.m	:	(HRLT-B)	(2in)	Apparent	Resistivity	from	Computed	Focusing	Mode	4										
RLA5	.ohm.m	:	(HRLT-B)	(2in)	Apparent	Resistivity	from	Computed	Focusing	Mode	5										
ITT	.s	:	(DSLT-H)	(6in)	Integrated	Transit	Time														
GR	.gAPI	:	(HGNS-H)	(6in)	Gamma	Ray															
#-------------------------------------------------------------																					
#	DEPT	RHOZ	CALI	TENS	BS	PEFZ	NPHI	TNPH	HDRA	ICV	IHV	SP	SPHI	DT	RLA1	RLA2	RLA3	RLA4	RLA5	ITT	GR
#	(HDRS-H)	(HDRS-H)	(WLWorkflo)	(Borehole)	(HDRS-H)	(HGNS-H)	(HGNS-H)	(HDRS-H)	(Borehole)	(Borehole)	(SPA-A)	(DSLT-H)	(DSLT-H)	(HRLT-B)	(HRLT-B)	(HRLT-B)	(HRLT-B)	(HRLT-B)	(DSLT-H)	(HGNS-H)	
#	(RT)	(RT)	(RT)																		
#	(2in)	(1in)	(6in)	(6in)	(2in)	(6in)	(6in)	(2in)	(6in)	(6in)	(6in)	(6in)	(6in)	(2in)	(2in)	(2in)	(2in)	(2in)	(6in)	(6in)	
~ASCII																					
# ...
	1129.8936	2.2236	9.02789	2770.87588	8.5	2.65523	0.27147	0.2736	0.00162	0.89411	2.77849	6.6875	0.33134	119.18512	3.46535	3.0623	2.8382	2.69474	2.42114	0.02789	95.11158
	1130.046	2.23106	9.01644	2767.00018	8.5	2.63124	0.2695	0.29296	0.00217	0.89232	2.77291	6.25781	0.33057	118.87362	3.58481	3.14227	2.92673	2.76693	2.4975	0.02783	95.11164
	1130.1984	2.2428	9.03934	2756.37571	8.5	2.62481	0.28848	0.28315	0.00197	0.89052	2.76733	7.16964	0.32984	118.57964	3.54093	3.10748	2.88159	2.73837	2.46846	0.02777	100.2788
	1130.3508	2.24285	9.03934	2757.74929	8.5	2.64395	0.2728	0.29703	0.00322	0.88873	2.76175	7.91406	0.33011	118.68818	3.3226	2.93132	2.72434	2.58595	2.32719	0.02771	102.5112
	1130.5032	2.23762	9.03934	2757.74929	8.5	2.66871	0.28005	0.29121	0.00264	0.88693	2.75617	8.40625	0.33027	118.75109	3.15415	2.77311	2.58549	2.45529	2.19839	0.02765	103.6277
	1130.6556	2.23031	9.03934	2769.00098	8.5	2.6853	0.2707	0.30191	0.00348	0.88514	2.75059	7.39844	0.33041	118.80808	3.45209	3.03723	2.83375	2.69415	2.42903	0.02759	99.28973
	1130.808	2.2348	9.06223	2764.37441	8.5	2.68575	0.27792	0.29169	0.00519	0.88334	2.74501	6.8125	0.33036	118.78928	3.46879	3.04566	2.83835	2.69216	2.42865	0.02753	99.73639
	1130.9604	2.23773	9.06223	2752.28643	8.5	2.68041	0.26568	0.29571	0.00609	0.88154	2.73943	6.88281	0.32914	118.29986	3.3872	3.00799	2.7979	2.65133	2.39234	0.02748	101.0758
	1131.1128	2.2306	9.08512	2758.00108	8.5	2.68558	0.26542	0.2744	0.00389	0.87975	2.73386	7.88281	0.32886	118.18714	3.16799	2.81009	2.62722	2.4862	2.2448	0.02742	103.5957
	1131.2652	2.23125	9.1309	2755.75074	8.5	2.68295	0.25624	0.27298	0.00308	0.87795	2.72828	9.14063	0.32862	118.09299	3.1865	2.82541	2.63554	2.5034	2.26019	0.02736	104.4889
	1131.4176	2.23729	9.1309	2764.42836	8.5	2.68058	0.2799	0.27533	0.0029	0.87616	2.7227	9.94643	0.32742	117.61363	3.24874	2.89228	2.69611	2.57219	2.32027	0.0273	99.35338
	1131.57	2.24701	9.1309	2775.5002	8.5	2.66854	0.28916	0.30064	0.00288	0.87436	2.71712	11.4375	0.32723	117.54231	3.19584	2.83388	2.6472	2.51616	2.26385	0.02724	98.68363
	1131.7224	2.2512	9.10801	2764.87573	8.5	2.65628	0.29441	0.31399	0.00131	0.87257	2.71154	12.85938	0.32763	117.69767	3.0715	2.73422	2.55283	2.42973	2.1929	0.02718	100.4698
	1131.8748	2.24801	9.1309	2768.28608	8.5	2.66663	0.26668	0.30649	-0.00182	0.87077	2.70596	13.44643	0.32793	117.81633	3.07354	2.73512	2.55395	2.42934	2.1867	0.02712	110.294
	1132.0272	2.2534	9.1309	2772.87444	8.5	2.66948	0.26312	0.28018	-0.00229	0.86898	2.70038	13.25	0.32684	117.38692	3.15962	2.79402	2.60983	2.48165	2.2407	0.02706	113.4199
	1132.1796	2.25287	9.17669	2766.37521	8.5	2.70112	0.24089	0.28647	-0.00287	0.86718	2.6948	13	0.32662	117.29887	3.15582	2.81475	2.64082	2.50727	2.26768	0.027	111.8568
	1132.332	2.26194	9.17669	2760.28513	8.5	2.72398	0.25285	0.27353	0.00006	0.86539	2.68922	13.59375	0.32527	116.77214	3.11321	2.75014	2.58195	2.45084	2.21007	0.02695	103.4363
	1132.4844	2.26705	9.18813	2767.49925	8.5	2.75751	0.25289	0.27892	0.00288	0.86359	2.68364	13.11719	0.32346	116.06939	3.10018	2.77077	2.59255	2.46809	2.22706	0.02689	98.7476
	1132.6368	2.27642	9.17669	2766.5011	8.5	2.76614	0.26324	0.27207	0.00614	0.8618	2.67806	12.29464	0.32455	116.49358	3.28564	2.92121	2.73976	2.60671	2.34929	0.02683	98.0775
	1132.7892	2.27019	9.17669	2765.71427	8.5	2.76743	0.26589	0.28239	0.00478	0.86	2.67248	12.25	0.32572	116.9478	3.20797	2.85818	2.67438	2.54523	2.3005	0.02677	104.2014
	1132.9416	2.26615	9.19958	2764.87573	8.5	2.77577	0.28099	0.28283	0.00309	0.8582	2.6669	12.40625	0.32399	116.27324	3.1571	2.81687	2.64752	2.51475	2.27393	0.02671	109.3364
	1133.094	2.26966	9.19958	2761.625	8.5	2.81132	0.30061	0.28498	-0.00235	0.85641	2.66133	12.61607	0.32405	116.29906	3.18899	2.85926	2.67603	2.54966	2.30877	0.02665	111.7927
	1133.2464	2.28214	9.19958	2769.28648	8.5	2.86258	0.30584	0.30195	-0.00358	0.85461	2.65575	13.33594	0.32387	116.22701	3.24213	2.90053	2.71164	2.57991	2.33831	0.0266	114.5992
	1133.3988	2.28743	9.22247	2766.62475	8.5	2.89301	0.30471	0.31528	-0.00342	0.85282	2.65017	13.42969	0.32443	116.44585	3.17884	2.84088	2.65805	2.53348	2.29549	0.02654	110.8037
	1133.5512	2.27267	9.22247	2769.12462	8.5	2.88028	0.30701	0.3257	-0.00044	0.85102	2.64459	13.28571	0.32667	117.32118	2.96256	2.65834	2.48722	2.36923	2.15125	0.02648	116.8323
	1133.7036	2.26098	9.22247	2782.42882	8.5	2.84608	0.28934	0.33156	0.00172	0.84923	2.63901	12.95313	0.32759	117.68282	3.03701	2.69118	2.52417	2.40827	2.18813	0.02642	114.2808
	1133.856	2.2621	9.24536	2769.99913	8.5	2.82434	0.25084	0.30637	0.00499	0.84743	2.63343	12.6875	0.3266	117.29332	3.09687	2.73807	2.56802	2.44345	2.22208	0.02636	116.2901
	1134.0084	2.26409	9.24536	2774.4998	8.5	2.7896	0.22911	0.26636	0.00541	0.84564	2.62785	12.80357	0.32654	117.27055	2.98355	2.65253	2.49016	2.3698	2.15723	0.0263	111.1542
	1134.1608	2.26431	9.22247	2781.99943	8.5	2.75252	0.24334	0.24732	0.00548	0.84384	2.62227	12.09375	0.32711	117.49427	3.06816	2.72951	2.55199	2.43388	2.21386	0.02624	107.6143
	1134.3132	2.2502	9.22247	2777.75054	8.5	2.71189	0.306	0.26224	0.00119	0.84205	2.61669	10.94531	0.32713	117.50223	3.10049	2.77111	2.59057	2.47041	2.24852	0.02619	105.7643
	1134.4656	2.24668	9.22247	2779.37591	8.5	2.69705	0.3075	0.31395	-0.00026	0.84025	2.61111	9.13281	0.32739	117.60385	3.21566	2.86102	2.68163	2.56109	2.3251	0.02613	103.5322
	1134.618	2.25174	9.22247	2778.00008	8.5	2.6806	0.29964	0.31384	-0.00001	0.83846	2.60553	7.78571	0.32638	117.20636	3.23767	2.88342	2.69744	2.5747	2.33351	0.02607	101.2035
	1134.7704	2.24962	9.24536	2767.37561	8.5	2.66878	0.26016	0.31073	-0.00057	0.83666	2.59995	6.74219	0.32528	116.77479	3.15053	2.8014	2.62557	2.50874	2.27234	0.02601	99.48095
	1134.9228	2.24104	9.24536	2780.87539	8.5	2.67986	0.23888	0.27559	-0.00107	0.83486	2.59437	5.8125	0.3248	116.58914	3.15765	2.78907	2.60887	2.4894	2.25791	0.02595	94.7922
	1135.0752	2.22966	9.22247	2783.14371	8.5	2.67539	0.2578	0.25578	-0.00198	0.83307	2.58879	5.55357	0.32481	116.59414	3.14223	2.7831	2.61065	2.48564	2.25537	0.02589	97.3434
	1135.2276	2.22205	9.22247	2785.74924	8.5	2.67887	0.25345	0.27211	-0.00132	0.83127	2.58322	5.05469	0.32632	117.18295	3.14075	2.77923	2.60715	2.49135	2.26233	0.02583	93.99476
	1135.38	2.22181	9.22247	2802.25022	8.5	2.64232	0.27052	0.26764	0.0003	0.82948	2.57764	3.99219	0.32656	117.27805	3.23569	2.8818	2.6963	2.56964	2.34049	0.02578	93.67583
	1135.5324	2.21696	9.24536	2797.28644	8.5	2.63701	0.25771	0.28575	0.00047	0.82768	2.57206	3.45536	0.3276	117.68721	3.19312	2.83548	2.65607	2.5348	2.30394	0.02572	88.0947
	1135.6848	2.22412	9.24536	2805.50096	8.5	2.62624	0.25589	0.27222	0.00169	0.82589	2.56648	4.35938	0.32748	117.63805	3.06114	2.74054	2.56492	2.44572	2.21934	0.02566	92.91106
	1135.8372	2.23004	9.24536	2809.74985	8.5	2.63086	0.26391	0.27706	0.00221	0.82409	2.5609	5.57813	0.32646	117.23903	3.24138	2.86707	2.68172	2.55447	2.32588	0.0256	94.56944
	1135.9896	2.22419	9.23391	2803.25062	8.5	2.64661	0.25736	0.2874	0.00034	0.8223	2.55532	6.42857	0.32528	116.77702	3.15845	2.81861	2.63508	2.51634	2.28787	0.02554	99.70454
	1136.142	2.21556	9.25681	2797.28644	8.5	2.66645	0.27825	0.27548	-0.00181	0.8205	2.54974	6.5	0.32386	116.22615	2.9374	2.59437	2.43123	2.31546	2.1046	0.02548	100.2466
	1136.2944	2.20941	9.24536	2789.62495	8.5	2.6981	0.28765	0.29031	-0.00273	0.81871	2.54416	6.71875	0.32417	116.34329	3.08488	2.7323	2.55734	2.44023	2.21303	0.02542	100.2468
	1136.4468	2.21445	9.24536	2776.99968	8.5	2.71116	0.29044	0.31131	-0.00071	0.81691	2.53858	6.49219	0.32566	116.92226	3.23995	2.86862	2.68029	2.5503	2.31832	0.02537	95.84491
	1136.5992	2.21431	9.24536	2786.85755	8.5	2.71437	0.3088	0.30904	0.00072	0.81511	2.533	6.51786	0.32773	117.73711	3.18208	2.81812	2.62791	2.50384	2.27633	0.02531	97.85497
	1136.7516	2.21181	9.22247	2778.00008	8.5	2.69631	0.3175	0.3114	0.00122	0.81332	2.52742	5.50781	0.32952	118.45296	3.172	2.80573	2.62712	2.50307	2.27289	0.02525	98.30138
	1136.904	2.21267	9.24536	2774.74934	8.5	2.68126	0.3501	0.31608	0.00256	0.81152	2.52184	5.09375	0.32954	118.46125	3.21802	2.84827	2.66444	2.53167	2.29358	0.02519	99.06702
