~VERSION	INFORMATION																				
VERS	.	2	:CWLS	Log	ASCII	Standard	-	VERSION	2												
WRAP	.	NO	:One	Line	per	Depth	step														
PROD	.	Schlumberger	Technology	Corp.	:LAS	Producer															
PROG	.	Horizon	LASWriter	7.3.92069.3100	:LAS	Program	name	and	version												
SOURCE.	2-Main[4]/Up	:Run&Pass	Information																		
CREA	.	11/27/2017	:LAS	Creation	date	{MM/DD/YYYY}															
#--------------------------------------------------																					
~WELL	INFORMATION																				
#MNEM	.UNIT	DATA	:DESCRIPTION																		
#----	------	--------------	-----------------------------																		
STRT	.m	289.8648	:START	DEPTH																	
STOP	.m	1205.6364	:STOP	DEPTH																	
STEP	.m	0.1524	:STEP																		
NULL	.	-999.25	:NULL	VALUE																	
COMP	.	:COMPANY																			
WELL	.	H-8	:WELL	NAME																	
FLD	.	:FIELD	NAME																		
RIGN	.	:Rig	Name																		
RIGTYP	.	Land	:Rig	Type																	
SON	.	CYTN-00096	:Service	Order	Number																
SRVC	.	Schlumberger	:SERVICE	COMPANY																	
DATE	.	:LOG	DATE(Composite	Date	for	Composite	LAP)	(MM/DD/YYYY)													
CLAB	.	Prefecture:	:County	Label																	
CNTY	.	:COUNTY																			
SLAB	.	Rig	Name	:State/Province	Label																
STAT	.	:STATE	or	PROVINCE																	
PROV	.	:STATE	or	PROVINCE																	
CTRY	.	:COUNTRY																			
CONT_REGION	.	Asia	:Continent	Region																	
SECT	.	:Section																			
TOWN	.	:Township																			
RANG	.	:Range																			
API	.	:API	NUMBER																		
UWI	.	:UNIQUE	WELL	ID																	
LUL	.	PATW	:Logging	Unit	Location																
LUN	.	OSLC#2147	:Logging	Unit	Number																
LOC	.	:FIELD	LOCATION																		
FL1	.	:Field	Location	Line	1																
FL2	.	:Field	Location	Line	2																
LATI	.deg	:LATITUDE																			
LONG	.deg	:LONGITUDE																			
PDAT	.	GL	:Local	Permanent	Datum																
LMF	.	GL	:Logging	Measured	From																
APD	.m	0	:Elevation	of	Depth	Reference	(LMF)	Above	Permanent	Datum											
EPD	.m	14.09	:Elevation	of	Permanent	Datum	(PDAT)	above	Mean	Sea	Level										
EKB	.m	-999.25	:Elevation	of	Kelly	Bushing	Above	Permanent	Datum												
EDF	.m	20.19	:Elevation	of	Drill	Floor	Above	Permanent	Datum												
EGL	.m	0	:Elevation	of	Ground	Level	Above	Permanent	Datum												
ECF	.m	-999.25	:Elevation	of	Casing	Flange	above	Permanent	Datum												
#--------------------------------------------------																					
~CURVE	INFORMATION																				
#MNEM	.UNIT	API	CODE	:DESCRIPTION																	
#----	------	--------------	-----------------------------																		
DEPT	.m	:	Depth	Index																	
RHOZ	.g/cm3	:	(HDRS-H)	(2in)	Standard	Resolution	Formation	Density													
CALI	.in	:	(HDRS-H)	(1in)	Caliper																
TENS	.lbf	:	(WLWorkflow)	(6in)	Cable	Tension															
BS	.in	:(RT)	(Borehole)	(6in)	Bit	Size															
PEFZ	.	:	(HDRS-H)	(2in)	Standard	Resolution	Formation	Photoelectric	Factor												
NPHI	.m3/m3	:	(HGNS-H)	(6in)	Thermal	Neutron	Porosity	(original	Ratio	Method)	in	Selected	Lithology								
TNPH	.m3/m3	:	(HGNS-H)	(6in)	Thermal	Neutron	Porosity	(Ratio	Method)	in	Selected	Lithology									
HDRA	.g/cm3	:	(HDRS-H)	(2in)	Density	Standoff	Correction														
ICV	.m3	:(RT)	(Borehole)	(6in)	Integrated	Cement	Volume														
IHV	.m3	:(RT)	(Borehole)	(6in)	Integrated	Hole	Volume														
SP	.mV	:	(SPA-A)	(6in)	Spontaneous	Potential															
SPHI	.m3/m3	:	(DSLT-H)	(6in)	Sonic	Porosity															
DT	.us/ft	:	(DSLT-H)	(6in)	Delta-T	(also	called	Slowness	or	Interval	Transit	Time)									
RLA1	.ohm.m	:	(HRLT-B)	(2in)	Apparent	Resistivity	from	Computed	Focusing	Mode	1										
RLA2	.ohm.m	:	(HRLT-B)	(2in)	Apparent	Resistivity	from	Computed	Focusing	Mode	2										
RLA3	.ohm.m	:	(HRLT-B)	(2in)	Apparent	Resistivity	from	Computed	Focusing	Mode	3										
RLA4	.ohm.m	:	(HRLT-B)	(2in)	Apparent	Resistivity	from	Computed	Focusing	Mode	4										
RLA5	.ohm.m	:	(HRLT-B)	(2in)	Apparent	Resistivity	from	Computed	Focusing	Mode	5										
ITT	.s	:	(DSLT-H)	(6in)	Integrated	Transit	Time														
GR	.gAPI	:	(HGNS-H)	(6in)	Gamma	Ray															
#-------------------------------------------------------------																					
#	DEPT	RHOZ	CALI	TENS	BS	PEFZ	NPHI	TNPH	HDRA	ICV	IHV	SP	SPHI	DT	RLA1	RLA2	RLA3	RLA4	RLA5	ITT	GR
#	(HDRS-H)	(HDRS-H)	(WLWorkflo)	(Borehole)	(HDRS-H)	(HGNS-H)	(HGNS-H)	(HDRS-H)	(Borehole)	(Borehole)	(SPA-A)	(DSLT-H)	(DSLT-H)	(HRLT-B)	(HRLT-B)	(HRLT-B)	(HRLT-B)	(HRLT-B)	(DSLT-H)	(HGNS-H)	
#	(RT)	(RT)	(RT)																		
#	(2in)	(1in)	(6in)	(6in)	(2in)	(6in)	(6in)	(2in)	(6in)	(6in)	(6in)	(6in)	(6in)	(2in)	(2in)	(2in)	(2in)	(2in)	(6in)	(6in)	
~ASCII																					
# ...
	885.7488	2.15726	8.8562	2473.12543	8.5	2.44733	0.30775	0.29923	-0.01016	3.77044	11.71639	7.69531	0.35327	128.80324	12.75213	13.524	13.90557	14.17134	14.38588	0.12799	85.67064
	885.9012	2.16328	8.8562	2475.00034	8.5	2.48642	0.32379	0.32363	-0.00822	3.76864	11.71081	7.79688	0.35284	128.60033	12.79634	13.6012	14.02606	14.26631	14.4753	0.12793	83.62939
	886.0536	2.16277	8.8562	2474.85646	8.5	2.50378	0.32271	0.33076	-0.00713	3.76685	11.70523	8.07813	0.35212	128.25996	12.7802	13.57663	13.9874	14.22535	14.42083	0.12786	84.96875
	886.206	2.15674	8.8562	2486.37567	8.5	2.50024	0.33679	0.32059	-0.00686	3.76505	11.69965	8	0.35231	128.34896	12.96075	13.81257	14.24255	14.4845	14.68977	0.1278	86.75456
	886.3584	2.14829	8.84476	2493.25033	8.5	2.47978	0.35355	0.33012	-0.00835	3.76326	11.69407	8.10156	0.35242	128.40072	13.07301	13.8544	14.2963	14.54011	14.75109	0.12774	83.18227
	886.5108	2.14766	8.83331	2482.37407	8.5	2.45488	0.38299	0.35513	-0.00844	3.76146	11.68849	8.33929	0.35278	128.5726	12.72446	13.48086	13.89433	14.15258	14.33514	0.12767	79.38683
	886.6632	2.15518	8.83331	2490.12548	8.5	2.4241	0.3359	0.38928	-0.00695	3.75967	11.68291	8.17188	0.35276	128.56266	12.61323	13.35808	13.76408	14.00458	14.19481	0.12761	81.39662
	886.8156	2.15896	8.83331	2479.2852	8.5	2.41638	0.33341	0.34333	-0.00552	3.75787	11.67733	7.89844	0.35289	128.62408	12.32167	13.01225	13.42357	13.63769	13.8448	0.12754	85.73414
	886.968	2.16357	8.83331	2468.37522	8.5	2.40758	0.30029	0.34436	-0.00411	3.75608	11.67176	7.875	0.35286	128.6081	12.52518	13.13376	13.49794	13.76383	13.91871	0.12748	87.96664
	887.1204	2.16141	8.8562	2464.49951	8.5	2.43021	0.32966	0.32039	-0.00431	3.75428	11.66618	7.85938	0.35288	128.61877	12.57682	13.29901	13.7138	13.94258	14.0829	0.12742	90.1996
	887.2728	2.1586	8.81042	2465.87534	8.5	2.45418	0.32714	0.33828	-0.00526	3.75249	11.6606	8.15625	0.35321	128.77465	12.73668	13.45673	13.8353	14.05285	14.21901	0.12735	89.94463
	887.4252	2.15394	8.83331	2474.28545	8.5	2.50564	0.3406	0.33219	-0.00644	3.75069	11.65502	8.44643	0.35372	129.01632	12.6804	13.42352	13.79286	13.98895	14.20014	0.12729	90.16817
	887.5776	2.15076	8.81042	2483.12493	8.5	2.5361	0.31918	0.34428	-0.00767	3.7489	11.64944	8.64063	0.35409	129.19289	12.61915	13.30671	13.69222	13.86732	14.02711	0.12722	86.37226
	887.73	2.14449	8.84476	2480.12598	8.5	2.55629	0.30588	0.32121	-0.00835	3.7471	11.64386	8.73214	0.35452	129.39955	12.49451	13.16579	13.54543	13.733	13.90457	0.12716	87.39294
	887.8824	2.14166	8.83331	2480.49916	8.5	2.53959	0.31365	0.30981	-0.00969	3.74531	11.63828	8.70313	0.35455	129.41503	12.53137	13.11039	13.48814	13.72256	13.89295	0.12709	84.04373
	888.0348	2.14169	8.81042	2477.99929	8.5	2.52421	0.33328	0.32692	-0.01051	3.74351	11.6327	8.74219	0.35458	129.4271	12.30611	12.96706	13.33394	13.55103	13.72762	0.12703	88.73235
	888.1872	2.1462	8.82187	2489.14307	8.5	2.51912	0.33377	0.3543	-0.01107	3.74172	11.62712	8.86607	0.35425	129.27047	12.43849	13.14863	13.46771	13.70071	13.88326	0.12696	82.09822
	888.3396	2.14712	8.81042	2484.7503	8.5	2.51695	0.34514	0.35721	-0.01059	3.73992	11.62154	9.24219	0.35368	129.00035	12.60301	13.24742	13.6112	13.8079	13.95359	0.1269	84.77766
	888.492	2.15105	8.81042	2490.37502	8.5	2.47516	0.30935	0.36445	-0.00918	3.73812	11.61597	9.66406	0.35373	129.02077	12.70271	13.3787	13.75862	13.95638	14.11814	0.12683	79.29166
	888.6444	2.15017	8.82187	2481.5715	8.5	2.43026	0.29571	0.32601	-0.00884	3.73633	11.61039	9.79464	0.35345	128.88745	12.51686	13.20642	13.56863	13.76367	13.93987	0.12677	87.39298
	888.7968	2.14849	8.83331	2478.62426	8.5	2.42125	0.29041	0.30681	-0.00871	3.73453	11.60481	9.53906	0.35286	128.6085	12.45836	13.03677	13.43219	13.63418	13.80291	0.12671	83.15044
	888.9492	2.15522	8.83331	2469.42957	8.5	2.42001	0.28758	0.29233	-0.00863	3.73274	11.59923	9.25	0.35243	128.40514	12.54178	13.21788	13.59347	13.80375	14.00659	0.12664	88.18976
	889.1016	2.15916	8.83331	2477.12478	8.5	2.43685	0.29846	0.29404	-0.00834	3.73094	11.59365	9.15179	0.35209	128.24911	12.43585	13.15185	13.53097	13.74073	13.92686	0.12658	90.29488
	889.254	2.15892	8.83331	2486.87475	8.5	2.42828	0.29231	0.30247	-0.0102	3.72915	11.58807	8.85938	0.35233	128.36131	12.50894	13.18573	13.5507	13.74872	13.91556	0.12651	93.86741
	889.4064	2.14788	8.83331	2487.42778	8.5	2.45095	0.33823	0.30362	-0.01052	3.72735	11.58249	8.78906	0.35295	128.65203	12.3601	13.05233	13.40734	13.61705	13.80874	0.12645	88.57304
	889.5588	2.14345	8.82187	2486.62521	8.5	2.46982	0.33862	0.34962	-0.00974	3.72556	11.57691	8.91071	0.35379	129.0532	12.34978	12.96068	13.31537	13.52306	13.68525	0.12638	81.55622
	889.7112	2.14339	8.8562	2470.42772	8.5	2.50052	0.32953	0.35327	-0.00781	3.72376	11.57133	8.86719	0.35411	129.20286	12.40911	13.03436	13.40576	13.60906	13.75803	0.12632	80.21655
	889.8636	2.14495	8.8562	2449.7498	8.5	2.51469	0.31094	0.34526	-0.00818	3.72197	11.56575	8.71429	0.35378	129.04674	12.34751	13.02235	13.3632	13.58321	13.76375	0.12625	83.50185
	890.016	2.15193	8.8562	2463.12593	8.5	2.49585	0.30091	0.327	-0.00821	3.72017	11.56018	8.86719	0.35339	128.86103	12.24179	12.88603	13.21133	13.42939	13.61434	0.12619	86.69115
	890.1684	2.15271	8.8562	2481.85701	8.5	2.46728	0.29972	0.30067	-0.00945	3.71838	11.5546	9.00781	0.35268	128.52297	12.26995	12.8642	13.24098	13.42575	13.6046	0.12613	90.26373
	890.3208	2.14774	8.8562	2488.37422	8.5	2.43851	0.27405	0.31011	-0.01162	3.71658	11.54902	8.95313	0.35201	128.20766	12.25414	12.93928	13.32181	13.50149	13.65817	0.12606	95.3988
	890.4732	2.14089	8.8562	2490.62456	8.5	2.42385	0.28614	0.29426	-0.01347	3.71479	11.54344	8.86607	0.35118	127.82169	12.31702	13.02808	13.36011	13.56284	13.70032	0.126	93.10227
	890.6256	2.13932	8.8562	2480.14397	8.5	2.42465	0.29061	0.30618	-0.01258	3.71299	11.53786	8.78125	0.3502	127.36714	12.4082	13.09509	13.4308	13.58704	13.76195	0.12593	90.64618
	890.778	2.14217	8.83331	2481.25003	8.5	2.45338	0.3166	0.30813	-0.01024	3.7112	11.53228	8.55357	0.35027	127.39945	12.38167	12.99232	13.32304	13.49902	13.64795	0.12587	87.52036
	890.9304	2.14903	8.89054	2481.5715	8.5	2.50976	0.31356	0.32635	-0.00887	3.7094	11.5267	8.34375	0.35074	127.61455	12.25359	12.79981	13.14616	13.30005	13.45121	0.12581	87.7756
	891.0828	2.16621	8.90199	2489.62416	8.5	2.56969	0.29956	0.33547	-0.00586	3.7076	11.52112	7.99107	0.35291	128.6348	11.92859	12.4575	12.79473	12.97896	13.10128	0.12574	91.12479
	891.2352	2.18011	8.97066	2487.62561	8.5	2.60954	0.28787	0.32289	-0.00295	3.70581	11.51554	7.29688	0.35513	129.69167	11.5367	12.06683	12.39732	12.5828	12.69846	0.12568	93.13397
	891.3876	2.18432	8.97066	2468.42917	8.5	2.57224	0.29838	0.30936	-0.00063	3.70401	11.50996	7.76563	0.35575	129.99034	11.98449	12.57148	12.8888	13.08391	13.22036	0.12561	94.66492
	891.54	2.17405	8.94777	2459.37387	8.5	2.50089	0.306	0.30068	-0.00246	3.70222	11.50439	7.90179	0.35563	129.93081	12.099	12.65367	12.95634	13.1514	13.24675	0.12555	90.86909
	891.6924	2.16444	8.97066	2476.25028	8.5	2.42773	0.29478	0.30393	-0.00574	3.70042	11.49881	7.95313	0.35444	129.36014	12.04751	12.64205	12.94501	13.13878	13.25612	0.12548	82.54458
	891.8448	2.16048	8.94777	2482.00089	8.5	2.38935	0.2789	0.307	-0.00844	3.69863	11.49323	8.25	0.35466	129.46667	11.95969	12.58868	12.94455	13.08281	13.20649	0.12542	77.6326
	891.9972	2.16046	8.97066	2500.25088	8.5	2.37526	0.2764	0.2922	-0.00928	3.69683	11.48765	8.49107	0.35479	129.52665	11.62731	12.24306	12.55569	12.68717	12.80059	0.12535	71.60464
	892.1496	2.16844	8.97066	2504.74931	8.5	2.37037	0.28779	0.29356	-0.00671	3.69504	11.48207	8.54688	0.35461	129.44234	11.71127	12.34951	12.66784	12.83418	12.96822	0.12529	72.88055
	892.302	2.1732	8.95922	2482.14252	8.5	2.38711	0.29007	0.30709	-0.00421	3.69324	11.47649	8.40625	0.35466	129.46773	11.88596	12.52198	12.85255	13.0302	13.17065	0.12522	80.02522
	892.4544	2.17635	8.94777	2468.50111	8.5	2.4	0.26946	0.31035	-0.00279	3.69145	11.47091	8.38393	0.35402	129.15994	11.92342	12.5092	12.81689	13.0102	13.14441	0.12516	90.51845
	892.6068	2.16509	8.97066	2471.37417	8.5	2.42193	0.25458	0.29365	-0.00561	3.68965	11.46533	8.48438	0.35354	128.93351	11.45722	12.01788	12.32706	12.51928	12.66829	0.1251	91.76228
