~VERSION	INFORMATION																				
VERS	.	2	:CWLS	Log	ASCII	Standard	-	VERSION	2												
WRAP	.	NO	:One	Line	per	Depth	step														
PROD	.	Schlumberger	Technology	Corp.	:LAS	Producer															
PROG	.	Horizon	LASWriter	7.3.92069.3100	:LAS	Program	name	and	version												
SOURCE.	2-Main[4]/Up	:Run&Pass	Information																		
CREA	.	11/27/2017	:LAS	Creation	date	{MM/DD/YYYY}															
#--------------------------------------------------																					
~WELL	INFORMATION																				
#MNEM	.UNIT	DATA	:DESCRIPTION																		
#----	------	--------------	-----------------------------																		
STRT	.m	289.8648	:START	DEPTH																	
STOP	.m	1205.6364	:STOP	DEPTH																	
STEP	.m	0.1524	:STEP																		
NULL	.	-999.25	:NULL	VALUE																	
COMP	.	:COMPANY																			
WELL	.	H-8	:WELL	NAME																	
FLD	.	:FIELD	NAME																		
RIGN	.	:Rig	Name																		
RIGTYP	.	Land	:Rig	Type																	
SON	.	CYTN-00096	:Service	Order	Number																
SRVC	.	Schlumberger	:SERVICE	COMPANY																	
DATE	.	:LOG	DATE(Composite	Date	for	Composite	LAP)	(MM/DD/YYYY)													
CLAB	.	Prefecture:	:County	Label																	
CNTY	.	:COUNTY																			
SLAB	.	Rig	Name	:State/Province	Label																
STAT	.	:STATE	or	PROVINCE																	
PROV	.	:STATE	or	PROVINCE																	
CTRY	.	:COUNTRY																			
CONT_REGION	.	Asia	:Continent	Region																	
SECT	.	:Section																			
TOWN	.	:Township																			
RANG	.	:Range																			
API	.	:API	NUMBER																		
UWI	.	:UNIQUE	WELL	ID																	
LUL	.	PATW	:Logging	Unit	Location																
LUN	.	OSLC#2147	:Logging	Unit	Number																
LOC	.	:FIELD	LOCATION																		
FL1	.	:Field	Location	Line	1																
FL2	.	:Field	Location	Line	2																
LATI	.deg	:LATITUDE																			
LONG	.deg	:LONGITUDE																			
PDAT	.	GL	:Local	Permanent	Datum																
LMF	.	GL	:Logging	Measured	From																
APD	.m	0	:Elevation	of	Depth	Reference	(LMF)	Above	Permanent	Datum											
EPD	.m	14.09	:Elevation	of	Permanent	Datum	(PDAT)	above	Mean	Sea	Level										
EKB	.m	-999.25	:Elevation	of	Kelly	Bushing	Above	Permanent	Datum												
EDF	.m	20.19	:Elevation	of	Drill	Floor	Above	Permanent	Datum												
EGL	.m	0	:Elevation	of	Ground	Level	Above	Permanent	Datum												
ECF	.m	-999.25	:Elevation	of	Casing	Flange	above	Permanent	Datum												
#--------------------------------------------------																					
~CURVE	INFORMATION																				
#MNEM	.UNIT	API	CODE	:DESCRIPTION																	
#----	------	--------------	-----------------------------																		
DEPT	.m	:	Depth	Index																	
RHOZ	.g/cm3	:	(HDRS-H)	(2in)	Standard	Resolution	Formation	Density													
CALI	.in	:	(HDRS-H)	(1in)	Caliper																
TENS	.lbf	:	(WLWorkflow)	(6in)	Cable	Tension															
BS	.in	:(RT)	(Borehole)	(6in)	Bit	Size															
PEFZ	.	:	(HDRS-H)	(2in)	Standard	Resolution	Formation	Photoelectric	Factor												
NPHI	.m3/m3	:	(HGNS-H)	(6in)	Thermal	Neutron	Porosity	(original	Ratio	Method)	in	Selected	Lithology								
TNPH	.m3/m3	:	(HGNS-H)	(6in)	Thermal	Neutron	Porosity	(Ratio	Method)	in	Selected	Lithology									
HDRA	.g/cm3	:	(HDRS-H)	(2in)	Density	Standoff	Correction														
ICV	.m3	:(RT)	(Borehole)	(6in)	Integrated	Cement	Volume														
IHV	.m3	:(RT)	(Borehole)	(6in)	Integrated	Hole	Volume														
SP	.mV	:	(SPA-A)	(6in)	Spontaneous	Potential															
SPHI	.m3/m3	:	(DSLT-H)	(6in)	Sonic	Porosity															
DT	.us/ft	:	(DSLT-H)	(6in)	Delta-T	(also	called	Slowness	or	Interval	Transit	Time)									
RLA1	.ohm.m	:	(HRLT-B)	(2in)	Apparent	Resistivity	from	Computed	Focusing	Mode	1										
RLA2	.ohm.m	:	(HRLT-B)	(2in)	Apparent	Resistivity	from	Computed	Focusing	Mode	2										
RLA3	.ohm.m	:	(HRLT-B)	(2in)	Apparent	Resistivity	from	Computed	Focusing	Mode	3										
RLA4	.ohm.m	:	(HRLT-B)	(2in)	Apparent	Resistivity	from	Computed	Focusing	Mode	4										
RLA5	.ohm.m	:	(HRLT-B)	(2in)	Apparent	Resistivity	from	Computed	Focusing	Mode	5										
ITT	.s	:	(DSLT-H)	(6in)	Integrated	Transit	Time														
GR	.gAPI	:	(HGNS-H)	(6in)	Gamma	Ray															
#-------------------------------------------------------------																					
#	DEPT	RHOZ	CALI	TENS	BS	PEFZ	NPHI	TNPH	HDRA	ICV	IHV	SP	SPHI	DT	RLA1	RLA2	RLA3	RLA4	RLA5	ITT	GR
#	(HDRS-H)	(HDRS-H)	(WLWorkflo)	(Borehole)	(HDRS-H)	(HGNS-H)	(HGNS-H)	(HDRS-H)	(Borehole)	(Borehole)	(SPA-A)	(DSLT-H)	(DSLT-H)	(HRLT-B)	(HRLT-B)	(HRLT-B)	(HRLT-B)	(HRLT-B)	(DSLT-H)	(HGNS-H)	
#	(RT)	(RT)	(RT)																		
#	(2in)	(1in)	(6in)	(6in)	(2in)	(6in)	(6in)	(2in)	(6in)	(6in)	(6in)	(6in)	(6in)	(2in)	(2in)	(2in)	(2in)	(2in)	(6in)	(6in)	
~ASCII																					
# ...
	647.5476	2.10923	8.94777	2132.57136	8.5	2.61497	0.3412	0.35805	-0.00992	6.57648	20.43637	10.86607	0.37654	140.86701	20.62565	24.57742	26.65549	27.80951	28.70514	0.23262	86.34079
	647.7	2.11128	8.97066	2134.375	8.5	2.57035	0.36995	0.35385	-0.01352	6.57469	20.43079	10.94531	0.376	140.56209	20.63719	24.82013	26.98932	28.21536	29.17407	0.23255	84.17189
	647.8524	2.11471	8.97066	2135.24995	8.5	2.55117	0.40056	0.36107	-0.01864	6.57289	20.42521	11.24219	0.37546	140.2603	21.22202	25.65389	27.90125	29.19555	30.20007	0.23248	87.90352
	648.0048	2.11212	8.86765	2137.42858	8.5	2.5775	0.39162	0.38723	-0.0217	6.5711	20.41963	11.875	0.37517	140.09672	21.38801	25.93426	28.09472	29.44389	30.55676	0.23241	89.46621
	648.1572	2.10654	8.81042	2128.25008	8.5	2.59279	0.36326	0.3953	-0.02593	6.5693	20.41405	11.75781	0.37481	139.89134	21.42578	25.84682	28.10592	29.44517	30.62336	0.23234	87.67997
	648.3096	2.10795	8.74175	2123.37487	8.5	2.58478	0.3033	0.37315	-0.02124	6.5675	20.40847	11.5	0.3748	139.8865	21.26567	25.4254	27.61617	28.82271	30.07915	0.23227	83.50141
	648.462	2.10979	8.69596	2126.71441	8.5	2.5674	0.30326	0.31974	-0.01312	6.56571	20.40289	11.21429	0.37507	140.04076	21.22554	25.37974	27.52248	28.84304	30.08994	0.2322	81.93871
	648.6144	2.10776	8.67307	2136.12491	8.5	2.56499	0.35811	0.31738	-0.00736	6.56391	20.39731	11.04688	0.37506	140.03481	20.83759	24.74963	26.84034	28.0196	29.27812	0.23213	82.16203
	648.7668	2.10201	8.67307	2149.37492	8.5	2.56686	0.39317	0.34941	-0.01293	6.56212	20.39173	10.96875	0.37506	140.03436	21.35561	25.52934	27.69619	28.93445	30.24646	0.23206	79.48283
	648.9192	2.09901	8.74175	2151.85727	8.5	2.56052	0.39855	0.37979	-0.02299	6.56032	20.38615	10.88281	0.37538	140.2123	21.33321	25.74936	27.89021	29.22954	30.54355	0.23199	83.72475
	649.0716	2.09836	8.74175	2148.87517	8.5	2.55216	0.32282	0.39807	-0.02552	6.55853	20.38058	10.85156	0.37573	140.41017	21.24289	25.42737	27.55044	28.74617	30.06766	0.23192	86.62748
	649.224	2.1	8.71885	2136.57138	8.5	2.5296	0.31321	0.3356	-0.02485	6.55673	20.375	10.84821	0.37609	140.61235	20.61611	24.57701	26.7055	27.79024	29.00759	0.23185	88.38125
	649.3764	2.10023	8.69596	2129.50002	8.5	2.50303	0.3322	0.32286	-0.02398	6.55494	20.36942	10.53906	0.37642	140.79761	20.62085	24.74118	26.87425	27.92647	29.26508	0.23178	90.39076
	649.5288	2.11063	8.6044	2141.75008	8.5	2.4635	0.36764	0.33524	-0.02094	6.55314	20.36384	10.49219	0.37597	140.54788	20.67466	24.72512	26.85862	27.94014	29.14614	0.23171	87.48858
	649.6812	2.10841	8.65018	2147.62501	8.5	2.46922	0.34565	0.36728	-0.01774	6.55135	20.35826	10.89844	0.37537	140.20986	20.56456	24.5397	26.64506	27.69983	28.95951	0.23164	89.08367
	649.8336	2.10855	8.65018	2145.12491	8.5	2.50504	0.32067	0.34238	-0.01452	6.54955	20.35268	10.66071	0.3744	139.6636	20.67396	24.7771	26.82371	27.95966	29.19863	0.23157	85.89391
	649.986	2.11041	8.67307	2129.85724	8.5	2.55097	0.2991	0.33581	-0.01719	6.54776	20.3471	10.46875	0.3747	139.83377	20.52975	24.46567	26.4675	27.55373	28.7506	0.2315	85.44728
	650.1384	2.12162	8.63874	2129.50002	8.5	2.57262	0.34302	0.33311	-0.0174	6.54596	20.34152	10.10156	0.37472	139.84248	20.09201	23.95437	25.96667	27.12378	28.26057	0.23143	84.331
	650.2908	2.12217	8.6044	2130.99994	8.5	2.56679	0.32785	0.35992	-0.01821	6.54417	20.33594	10.00781	0.37468	139.82234	20.34476	24.24301	26.3211	27.47056	28.65084	0.23136	83.72527
	650.4432	2.11156	8.62729	2155.75006	8.5	2.53979	0.37059	0.33951	-0.0188	6.54237	20.33036	10.14286	0.37482	139.90134	20.66759	24.60281	26.76102	27.86834	29.14713	0.23129	82.28966
	650.5956	2.10313	8.66163	2163.50012	8.5	2.50989	0.35192	0.36212	-0.0231	6.54058	20.32479	10.47656	0.3742	139.55588	20.51667	24.27176	26.3989	27.60343	28.77983	0.23122	86.532
	650.748	2.10352	8.67307	2138.42853	8.5	2.5028	0.37199	0.343	-0.02578	6.53878	20.31921	10.5	0.37401	139.44664	20.46338	24.50905	26.73412	27.95571	29.20883	0.23115	84.74557
	650.9004	2.1038	8.67307	2137.87505	8.5	2.53319	0.33786	0.37212	-0.02189	6.53698	20.31363	10.01786	0.37439	139.65701	20.73226	25.1232	27.31112	28.52169	29.91863	0.23108	83.94822
	651.0528	2.09899	8.67307	2126.99992	8.5	2.55988	0.34761	0.33708	-0.01516	6.53519	20.30805	9.78906	0.3743	139.60681	20.61085	24.90436	27.0669	28.23931	29.74817	0.23101	83.31021
	651.2052	2.09444	8.65018	2117.71441	8.5	2.56081	0.37396	0.35296	-0.01136	6.53339	20.30247	9.64844	0.3749	139.94551	20.17486	24.13482	26.20519	27.39535	28.81443	0.23094	86.65939
	651.3576	2.09536	8.65018	2127.2499	8.5	2.56644	0.40965	0.39242	-0.01017	6.5316	20.29689	9.65179	0.37588	140.49473	19.73085	23.33057	25.33616	26.50762	27.89825	0.23087	92.46431
	651.51	2.1048	8.67307	2128.12486	8.5	2.57194	0.40839	0.42227	-0.01271	6.5298	20.29131	9.21875	0.37677	140.99579	19.17558	22.692	24.56672	25.72764	27.08822	0.2308	95.78145
	651.6624	2.11035	8.69596	2131.24993	8.5	2.58537	0.36005	0.40924	-0.0131	6.52801	20.28573	9.65625	0.37734	141.32558	18.97308	22.56006	24.46577	25.68777	27.01028	0.23073	92.52802
	651.8148	2.11342	8.65018	2134.25	8.5	2.55316	0.3372	0.3711	-0.01442	6.52621	20.28015	10.11607	0.37737	141.34256	19.52184	23.22409	25.25801	26.49028	27.87819	0.23066	93.86756
	651.9672	2.10889	8.63874	2130.71443	8.5	2.50716	0.32626	0.35543	-0.01425	6.52442	20.27457	9.875	0.37638	140.77834	19.60304	23.62884	25.76885	27.04372	28.403	0.23059	94.76085
	652.1196	2.10796	8.6044	2148.49997	8.5	2.458	0.34255	0.34064	-0.01448	6.52262	20.269	10.16406	0.37517	140.09553	19.81322	23.86448	26.13759	27.47839	28.8494	0.23052	100.3742
	652.272	2.1047	8.65018	2171.75016	8.5	2.44548	0.34716	0.35182	-0.01342	6.52083	20.26342	10.14063	0.37459	139.76799	19.55861	23.7956	26.05379	27.39615	28.78989	0.23045	101.4904
	652.4244	2.10311	8.65018	2162.85717	8.5	2.45069	0.34051	0.34879	-0.01522	6.51903	20.25784	10.04688	0.37419	139.54683	19.36074	23.44848	25.64103	26.98578	28.33303	0.23038	95.23873
	652.5768	2.09971	8.65018	2160.75003	8.5	2.46725	0.3139	0.34725	-0.01902	6.51724	20.25226	9.84375	0.3744	139.66305	19.30911	23.22997	25.38157	26.74062	28.00766	0.23031	90.64604
	652.7292	2.10253	8.65018	2143.12501	8.5	2.50721	0.30085	0.32881	-0.02118	6.51544	20.24668	9.54464	0.37441	139.67277	18.90934	22.34296	24.39518	25.72578	26.91286	0.23024	88.19023
	652.8816	2.11163	8.65018	2145.37512	8.5	2.58701	0.3172	0.32091	-0.01739	6.51365	20.2411	8.61719	0.37459	139.77061	18.2157	21.35738	23.15031	24.38605	25.45467	0.23017	96.86543
	653.034	2.12554	8.62729	2152.28575	8.5	2.67318	0.32435	0.32993	-0.01219	6.51185	20.23552	7.4375	0.37455	139.74967	17.62459	20.43824	22.10698	23.19068	24.16246	0.2301	105.5729
	653.1864	2.14273	8.6044	2149.25016	8.5	2.71331	0.31418	0.3383	-0.01062	6.51006	20.22994	6.49219	0.37438	139.65262	17.98865	20.68669	22.35147	23.39664	24.48124	0.23003	112.4945
	653.3388	2.16029	8.62729	2147.12504	8.5	2.71565	0.32032	0.32924	-0.01014	6.50826	20.22436	5.57143	0.37364	139.24294	18.40141	21.08281	22.72669	23.76443	24.85169	0.22996	113.6428
	653.4912	2.17167	8.62729	2143.71446	8.5	2.72582	0.32363	0.33437	-0.00999	6.50646	20.21878	4.89844	0.37351	139.1711	18.19189	20.82614	22.40398	23.33446	24.44442	0.22989	115.652
	653.6436	2.17941	8.62729	2140.37492	8.5	2.7383	0.35098	0.33684	-0.00838	6.50467	20.21321	4.75	0.37332	139.06415	17.70077	20.18715	21.74471	22.58755	23.52387	0.22982	118.331
	653.796	2.17946	8.6044	2149.87512	8.5	2.72213	0.35452	0.3467	-0.00752	6.50287	20.20763	4.89844	0.37288	138.82409	17.83175	20.45383	21.98681	22.90304	24.02843	0.22975	115.3966
	653.9484	2.17675	8.5815	2163.99987	8.5	2.67753	0.33497	0.34146	-0.0069	6.50108	20.20205	5.16071	0.37348	139.15242	17.93548	20.5715	22.15873	23.06813	24.17344	0.22968	114.0568
	654.1008	2.16565	8.5815	2160.71451	8.5	2.66088	0.32375	0.33603	-0.00756	6.49928	20.19647	5.70313	0.37354	139.18738	18.29178	20.99589	22.63642	23.63644	24.84064	0.22961	114.057
	654.2532	2.15606	8.6044	2153.25018	8.5	2.67483	0.3324	0.33724	-0.00919	6.49749	20.19089	5.89844	0.3737	139.27522	18.0332	20.9058	22.67496	23.83703	25.14041	0.22954	114.5675
	654.4056	2.15093	8.62729	2150.87507	8.5	2.67578	0.34745	0.36299	-0.01072	6.49569	20.18531	6.25	0.37425	139.58182	18.34043	21.29496	23.06301	24.30474	25.57766	0.22947	111.8886
