~VERSION	INFORMATION																				
VERS	.	2	:CWLS	Log	ASCII	Standard	-	VERSION	2												
WRAP	.	NO	:One	Line	per	Depth	step														
PROD	.	Schlumberger	Technology	Corp.	:LAS	Producer															
PROG	.	Horizon	LASWriter	7.3.92069.3100	:LAS	Program	name	and	version												
SOURCE.	2-Main[4]/Up	:Run&Pass	Information																		
CREA	.	11/27/2017	:LAS	Creation	date	{MM/DD/YYYY}															
#--------------------------------------------------																					
~WELL	INFORMATION																				
#MNEM	.UNIT	DATA	:DESCRIPTION																		
#----	------	--------------	-----------------------------																		
STRT	.m	289.8648	:START	DEPTH																	
STOP	.m	1205.6364	:STOP	DEPTH																	
STEP	.m	0.1524	:STEP																		
NULL	.	-999.25	:NULL	VALUE																	
COMP	.	:COMPANY																			
WELL	.	H-8	:WELL	NAME																	
FLD	.	:FIELD	NAME																		
RIGN	.	:Rig	Name																		
RIGTYP	.	Land	:Rig	Type																	
SON	.	CYTN-00096	:Service	Order	Number																
SRVC	.	Schlumberger	:SERVICE	COMPANY																	
DATE	.	:LOG	DATE(Composite	Date	for	Composite	LAP)	(MM/DD/YYYY)													
CLAB	.	Prefecture:	:County	Label																	
CNTY	.	:COUNTY																			
SLAB	.	Rig	Name	:State/Province	Label																
STAT	.	:STATE	or	PROVINCE																	
PROV	.	:STATE	or	PROVINCE																	
CTRY	.	:COUNTRY																			
CONT_REGION	.	Asia	:Continent	Region																	
SECT	.	:Section																			
TOWN	.	:Township																			
RANG	.	:Range																			
API	.	:API	NUMBER																		
UWI	.	:UNIQUE	WELL	ID																	
LUL	.	PATW	:Logging	Unit	Location																
LUN	.	OSLC#2147	:Logging	Unit	Number																
LOC	.	:FIELD	LOCATION																		
FL1	.	:Field	Location	Line	1																
FL2	.	:Field	Location	Line	2																
LATI	.deg	:LATITUDE																			
LONG	.deg	:LONGITUDE																			
PDAT	.	GL	:Local	Permanent	Datum																
LMF	.	GL	:Logging	Measured	From																
APD	.m	0	:Elevation	of	Depth	Reference	(LMF)	Above	Permanent	Datum											
EPD	.m	14.09	:Elevation	of	Permanent	Datum	(PDAT)	above	Mean	Sea	Level										
EKB	.m	-999.25	:Elevation	of	Kelly	Bushing	Above	Permanent	Datum												
EDF	.m	20.19	:Elevation	of	Drill	Floor	Above	Permanent	Datum												
EGL	.m	0	:Elevation	of	Ground	Level	Above	Permanent	Datum												
ECF	.m	-999.25	:Elevation	of	Casing	Flange	above	Permanent	Datum												
#--------------------------------------------------																					
~CURVE	INFORMATION																				
#MNEM	.UNIT	API	CODE	:DESCRIPTION																	
#----	------	--------------	-----------------------------																		
DEPT	.m	:	Depth	Index																	
RHOZ	.g/cm3	:	(HDRS-H)	(2in)	Standard	Resolution	Formation	Density													
CALI	.in	:	(HDRS-H)	(1in)	Caliper																
TENS	.lbf	:	(WLWorkflow)	(6in)	Cable	Tension															
BS	.in	:(RT)	(Borehole)	(6in)	Bit	Size															
PEFZ	.	:	(HDRS-H)	(2in)	Standard	Resolution	Formation	Photoelectric	Factor												
NPHI	.m3/m3	:	(HGNS-H)	(6in)	Thermal	Neutron	Porosity	(original	Ratio	Method)	in	Selected	Lithology								
TNPH	.m3/m3	:	(HGNS-H)	(6in)	Thermal	Neutron	Porosity	(Ratio	Method)	in	Selected	Lithology									
HDRA	.g/cm3	:	(HDRS-H)	(2in)	Density	Standoff	Correction														
ICV	.m3	:(RT)	(Borehole)	(6in)	Integrated	Cement	Volume														
IHV	.m3	:(RT)	(Borehole)	(6in)	Integrated	Hole	Volume														
SP	.mV	:	(SPA-A)	(6in)	Spontaneous	Potential															
SPHI	.m3/m3	:	(DSLT-H)	(6in)	Sonic	Porosity															
DT	.us/ft	:	(DSLT-H)	(6in)	Delta-T	(also	called	Slowness	or	Interval	Transit	Time)									
RLA1	.ohm.m	:	(HRLT-B)	(2in)	Apparent	Resistivity	from	Computed	Focusing	Mode	1										
RLA2	.ohm.m	:	(HRLT-B)	(2in)	Apparent	Resistivity	from	Computed	Focusing	Mode	2										
RLA3	.ohm.m	:	(HRLT-B)	(2in)	Apparent	Resistivity	from	Computed	Focusing	Mode	3										
RLA4	.ohm.m	:	(HRLT-B)	(2in)	Apparent	Resistivity	from	Computed	Focusing	Mode	4										
RLA5	.ohm.m	:	(HRLT-B)	(2in)	Apparent	Resistivity	from	Computed	Focusing	Mode	5										
ITT	.s	:	(DSLT-H)	(6in)	Integrated	Transit	Time														
GR	.gAPI	:	(HGNS-H)	(6in)	Gamma	Ray															
#-------------------------------------------------------------																					
#	DEPT	RHOZ	CALI	TENS	BS	PEFZ	NPHI	TNPH	HDRA	ICV	IHV	SP	SPHI	DT	RLA1	RLA2	RLA3	RLA4	RLA5	ITT	GR
#	(HDRS-H)	(HDRS-H)	(WLWorkflo)	(Borehole)	(HDRS-H)	(HGNS-H)	(HGNS-H)	(HDRS-H)	(Borehole)	(Borehole)	(SPA-A)	(DSLT-H)	(DSLT-H)	(HRLT-B)	(HRLT-B)	(HRLT-B)	(HRLT-B)	(HRLT-B)	(DSLT-H)	(HGNS-H)	
#	(RT)	(RT)	(RT)																		
#	(2in)	(1in)	(6in)	(6in)	(2in)	(6in)	(6in)	(2in)	(6in)	(6in)	(6in)	(6in)	(6in)	(2in)	(2in)	(2in)	(2in)	(2in)	(6in)	(6in)	
~ASCII																					
	289.8648	3.89637	8.8562	-999.25	-999.25	10	-999.25	0.87565	1.41336	-999.25	-999.25	-999.25	-999.25	-999.25	0.48785	0.43474	0.40527	0.38287	0.34979	-999.25	-999.25
	290.0172	3.90512	8.8562	1669.88892	12.25	10	0.64076	0.98383	1.42805	10.67858	33.09254	6.24219	0.2154	85.44827	0.35938	0.33383	0.35278	0.38215	0.35241	0.40941	64.4394
	290.1696	3.9143	8.8562	1653.00015	12.25	10	0.61543	0.78804	1.43992	10.67858	33.09254	6.45139	0.21507	85.38106	100000	100000	100000	100000	100000	0.40936	61.88946
	290.322	4.16569	8.8562	1655.55555	12.25	10	0.60617	0.68909	1.68822	10.67858	33.09254	5.9375	0.21525	85.41819	100000	100000	100000	100000	100000	0.40932	62.81645
	290.4744	4.15766	8.8562	1665.77784	12.25	10	0.67653	0.64495	1.67752	10.67858	33.09254	9.77778	0.21549	85.4676	0.15179	0.15277	0.15332	0.15387	0.15301	0.40928	64.9028
	290.6268	4.1468	8.8562	1668.11113	12.25	10	0.66442	0.86578	1.6727	10.67858	33.09254	11.05556	0.21271	84.89235	0.23093	0.1922	0.19287	0.19303	0.19115	0.40924	61.42584
	290.7792	4.13283	8.8562	1651.55553	12.25	10	0.58802	0.93686	1.67334	10.67858	33.09254	13.44444	0.17464	77.71498	0.62026	0.58428	0.55882	0.55659	0.54738	0.40919	58.4126
	290.9316	4.1186	8.83331	1657.22229	12.25	10	0.57708	0.67849	1.67255	10.67858	33.09254	14.31944	0.18413	79.38897	0.26063	0.22535	0.20525	0.19807	0.19813	0.40915	55.16743
	291.084	4.10865	8.8562	1675.77779	12.25	10	0.56011	0.6137	1.67472	10.67858	33.09254	13.63194	0.1701	76.93987	0.18196	0.18188	0.18255	0.18254	0.18285	0.40912	59.3398
	291.2364	4.1143	8.8562	1678.33342	12.25	10	0.62659	0.55085	1.68615	10.67858	33.09254	13.45139	0.17107	77.10358	0.14984	0.14644	0.14632	0.14654	0.14674	0.40908	58.64445
	291.3888	4.15431	8.83331	1661.66654	12.25	10	0.59927	0.70153	1.72205	10.67858	33.09254	12.38889	0.16932	76.80872	1.02277	0.85818	0.75937	0.69354	0.58578	0.40904	59.10797
	291.5412	4.29108	8.8562	1653.4446	12.25	10	0.69805	0.69054	1.81798	10.67858	33.09254	11.02083	0.17176	77.22251	0.19531	0.1654	0.16189	0.16279	0.16072	0.409	56.55815
	291.6936	4.45672	8.8562	1676.8888	12.25	9.98301	0.74055	0.93475	1.88366	10.67858	33.09254	14.78472	0.21951	86.31528	100000	100000	100000	100000	100000	0.40896	54.93557
	291.846	4.59163	8.8562	1682.66684	12.25	9.9393	0.76526	1.04704	1.93312	10.67858	33.09254	18.36111	0.22537	87.58001	0.29427	0.23963	0.21788	0.20138	0.16829	0.40892	51.92236
	291.9984	4.6288	8.83331	1661.33337	12.25	9.9393	0.65396	1.47701	1.89687	10.67858	33.09254	19.40278	0.22041	86.50703	0.72438	0.61762	0.55081	0.52821	0.4253	0.40887	46.82287
	292.1508	4.6288	8.82187	1671.11121	12.25	9.95629	0.55047	1.0259	1.91591	10.67858	33.09254	16.30556	0.21998	86.41543	100000	100000	100000	100000	100000	0.40883	50.76324
	292.3032	4.56038	8.83331	1678.88892	12.25	10	0.49043	0.64978	1.93304	10.67858	33.09254	13.42361	0.22324	87.1162	0.41781	0.40617	0.35086	0.33147	0.27932	0.40879	50.99504
	292.4556	4.39826	8.83331	1655.33344	12.25	10	0.52672	0.46887	1.88836	10.67858	33.09254	11.95833	0.16375	75.88072	0.50087	0.40757	0.36336	0.33073	0.27951	0.40874	52.38582
	292.608	4.2069	8.8562	1671.50013	12.25	10	0.66495	0.48078	1.78946	10.67858	33.09254	11.61806	0.15296	74.14604	0.24422	0.19997	0.17623	0.16567	0.14705	0.40871	49.60428
	292.7604	4.07823	8.83331	1673.11111	12.25	10	0.76628	0.78278	1.69151	10.67858	33.09254	11.15278	0.15316	74.17723	0.19062	0.18961	0.18998	0.18989	0.18985	0.40867	50.06781
	292.9128	4.03746	8.8562	1664.00005	12.25	10	0.73882	1.17145	1.66256	10.67858	33.09254	10.14583	0.20386	83.10704	0.18346	0.18294	0.18404	0.1838	0.18381	0.40863	56.32654
	293.0652	4.02824	8.8562	1671.33332	12.25	10	0.61197	1.00507	1.64186	10.67858	33.09254	10.09722	0.20637	83.606	0.19264	0.19446	0.19332	0.19346	0.19366	0.40859	57.71744
	293.2176	4.03532	8.83331	1654.40004	12.25	10	0.57207	0.66989	1.62023	10.67858	33.09254	10.58333	0.21614	85.60305	0.19566	0.19585	0.19628	0.19679	0.19649	0.40855	62.58503
	293.37	3.83944	8.83331	1639.9999	12.25	10	0.59827	0.63262	1.39195	10.67858	33.09254	11	0.21077	84.49373	0.18589	0.18465	0.18483	0.18464	0.18508	0.40851	60.49878
	293.5224	3.88344	8.83331	1670.66676	12.25	10	0.61885	0.67796	1.42179	10.67858	33.09254	11.35417	0.20802	83.93595	0.19631	0.19558	0.19485	0.19531	0.19524	0.40846	66.29362
	293.6748	3.92663	8.83331	1654.3	12.25	10	0.57161	0.64694	1.45392	10.67858	33.09254	12.00694	0.20241	82.82303	0.19264	0.19003	0.19037	0.1903	0.1904	0.40842	64.90283
	293.8272	4.18325	8.83331	1664.00005	12.25	10	0.5733	0.5143	1.69536	10.67858	33.09254	11.11111	0.20261	82.86119	0.18825	0.18773	0.18764	0.18791	0.18794	0.40838	67.22066
	293.9796	4.19541	8.83331	1671.66671	12.25	10	0.60163	0.54122	1.68771	10.67858	33.09254	10.125	0.20059	82.46757	0.18985	0.19072	0.19067	0.19075	0.19082	0.40834	67.22066
	294.132	4.19229	8.83331	1656.33339	12.25	10	0.65543	0.6655	1.6672	10.67858	33.09254	9.52778	0.20538	83.408	0.18729	0.186	0.18644	0.18641	0.18625	0.4083	75.33383
	294.2844	4.1784	8.84476	1649.88902	12.25	10	0.64717	0.87222	1.66343	10.67858	33.09254	9.375	0.19991	82.33538	0.18844	0.1899	0.18998	0.18988	0.19	0.40826	77.1884
	294.4368	3.91564	8.84476	1659.55558	12.25	10	0.58577	0.93641	1.41894	10.67858	33.09254	10	0.19579	81.54516	0.19269	0.19138	0.19193	0.19166	0.19141	0.40821	75.79758
	294.5892	3.90024	8.84476	1660.88892	12.25	10	0.51885	0.67391	1.41662	10.67858	33.09254	10.45139	0.19347	81.10704	0.18925	0.18844	0.18846	0.18868	0.18912	0.40817	69.53874
	294.7416	3.89406	8.83331	1667.6251	12.25	10	0.45655	0.48855	1.41157	10.67858	33.09254	10.20833	0.19494	81.38358	0.18645	0.18761	0.18784	0.18845	0.18821	0.40813	71.39325
	294.894	4.14832	8.83331	1668.55558	12.25	10	0.50403	0.41536	1.66248	10.67858	33.09254	9.14583	0.18873	80.22632	0.18415	0.18587	0.18587	0.18609	0.1859	0.40809	72.3205
	295.0464	4.16357	8.84476	1650.44452	12.25	10	0.52142	0.45562	1.67037	10.67858	33.09254	8.43056	0.139	72.01717	0.19004	0.18829	0.18836	0.18819	0.18835	0.40805	76.49294
	295.1988	4.15941	8.83331	1657.55568	12.25	10	0.56761	0.496	1.65739	10.67858	33.09254	8.48611	0.1878	80.05417	0.188	0.18751	0.1874	0.18773	0.18751	0.40802	75.56548
	295.3512	4.16954	8.84476	1671.66671	12.25	10	0.54327	0.59687	1.6574	10.67858	33.09254	8.77083	0.17079	77.05658	0.18894	0.18809	0.18822	0.18813	0.18839	0.40798	75.79739
	295.5036	4.18451	8.8562	1677.55558	12.25	10	0.63933	0.5426	1.66671	10.67858	33.09254	9.09028	0.16713	76.44122	0.18775	0.18795	0.18792	0.18791	0.18801	0.40794	71.85668
	295.656	4.21818	8.84476	1661.44442	12.25	10	0.60816	0.7629	1.70341	10.67858	33.09254	9.63195	0.03449	59.27077	0.17624	0.17794	0.17852	0.17882	0.17878	0.4079	67.91628
	295.8084	4.22772	8.84476	1680.11121	12.25	10	0.5978	0.61465	1.72364	10.67858	33.09254	10.39583	0.09885	66.52105	0.18749	0.18811	0.18807	0.18787	0.18815	0.40787	69.85735
	295.9608	4.22969	8.84476	1678.55553	12.25	10	0.45997	0.62395	1.74799	10.67858	33.09254	10.53472	0.10781	67.67276	0.18965	0.18949	0.1895	0.18935	0.18923	0.40784	69.16208
	296.1132	4.22813	8.84476	1659.55558	12.25	10	0.47637	0.4404	1.76154	10.67858	33.09254	10.84722	0.10126	66.82713	100000	100000	100000	100000	100000	0.4078	73.96022
	296.2656	4.21942	8.84476	1662.11098	12.25	10	0.53846	0.43495	1.74585	10.67858	33.09254	11.66667	0.10748	67.63006	0.30034	0.28089	0.2696	0.26099	0.24929	0.40777	66.22402
	296.418	4.19439	8.83331	1668.33347	12.25	10	0.66604	0.48417	1.70147	10.67858	33.09254	12.36806	0.10605	67.44371	0.18756	0.1869	0.18748	0.18738	0.18762	0.40774	70.86007
	296.5704	4.21434	8.8562	1666.77779	12.25	10	0.70239	0.78823	1.71532	10.67858	33.09254	11.56944	0.10491	67.29585	0.18909	0.19036	0.19066	0.19094	0.19076	0.4077	72.32029
	296.7228	4.18144	8.83331	1650.11113	12.25	10	0.67684	1.02597	1.68981	10.67858	33.09254	10.31944	0.10476	67.27625	0.19243	0.19248	0.19231	0.1926	0.19249	0.40767	81.56889
	296.8752	4.16306	8.83331	1668.00008	12.25	10	0.6666	0.90767	1.67421	10.67858	33.09254	10.51389	0.02343	58.18102	0.18945	0.18999	0.19006	0.19008	0.18992	0.40763	80.40989
	297.0276	4.10627	8.8562	1664.55556	12.25	10	0.62338	0.85653	1.60917	10.67858	33.09254	10.09028	0.01951	57.80416	0.19116	0.1914	0.19178	0.19148	0.19131	0.40761	80.17826
